{
  "type": "FeatureCollection",
  "features": [
    {
      "type": "Feature",
      "properties": {
        "": 0,
        "CITY": "Aceguá",
        "AREA": 1551.339,
        "ESTIMATED_POP": 4858,
        "IDHM": 0.687,
        "IDHM_Renda": 0.703,
        "geometry": "POINT (-54.1647 -31.864)"
      },
      "geometry": {
        "type": "Point",
        "coordinates": [
          -54.1647,
          -31.864
        ]
      }
    },
    {
      "type": "Feature",
      "properties": {
        "": 1,
        "CITY": "Agudo",
        "AREA": 534.624,
        "ESTIMATED_POP": 16524,
        "IDHM": 0.694,
        "IDHM_Renda": 0.752,
        "geometry": "POINT (-53.2587 -29.6457)"
      },
      "geometry": {
        "type": "Point",
        "coordinates": [
          -53.2587,
          -29.6457
        ]
      }
    },
    {
      "type": "Feature",
      "properties": {
        "": 2,
        "CITY": "Ajuricaba",
        "AREA": 322.671,
        "ESTIMATED_POP": 7063,
        "IDHM": 0.753,
        "IDHM_Renda": 0.763,
        "geometry": "POINT (-53.7728 -28.2377)"
      },
      "geometry": {
        "type": "Point",
        "coordinates": [
          -53.7728,
          -28.2377
        ]
      }
    },
    {
      "type": "Feature",
      "properties": {
        "": 3,
        "CITY": "Alecrim",
        "AREA": 316.51,
        "ESTIMATED_POP": 6077,
        "IDHM": 0.672,
        "IDHM_Renda": 0.683,
        "geometry": "POINT (-54.7671 -27.6611)"
      },
      "geometry": {
        "type": "Point",
        "coordinates": [
          -54.7671,
          -27.6611
        ]
      }
    },
    {
      "type": "Feature",
      "properties": {
        "": 4,
        "CITY": "Alegrete",
        "AREA": 7800.163,
        "ESTIMATED_POP": 74173,
        "IDHM": 0.74,
        "IDHM_Renda": 0.72,
        "geometry": "POINT (-55.7959 -29.782)"
      },
      "geometry": {
        "type": "Point",
        "coordinates": [
          -55.7959,
          -29.782
        ]
      }
    },
    {
      "type": "Feature",
      "properties": {
        "": 5,
        "CITY": "Alegria",
        "AREA": 172.396,
        "ESTIMATED_POP": 3559,
        "IDHM": 0.695,
        "IDHM_Renda": 0.717,
        "geometry": "POINT (-54.0574 -27.8373)"
      },
      "geometry": {
        "type": "Point",
        "coordinates": [
          -54.0574,
          -27.8373
        ]
      }
    },
    {
      "type": "Feature",
      "properties": {
        "": 6,
        "CITY": "Almirante Tamandaré Do Sul",
        "AREA": 265.327,
        "ESTIMATED_POP": 1979,
        "IDHM": 0.74,
        "IDHM_Renda": 0.732,
        "geometry": "POINT (-52.9137 -28.1137)"
      },
      "geometry": {
        "type": "Point",
        "coordinates": [
          -52.9137,
          -28.1137
        ]
      }
    },
    {
      "type": "Feature",
      "properties": {
        "": 7,
        "CITY": "Alpestre",
        "AREA": 325.979,
        "ESTIMATED_POP": 6458,
        "IDHM": 0.671,
        "IDHM_Renda": 0.7,
        "geometry": "POINT (-53.0374 -27.2488)"
      },
      "geometry": {
        "type": "Point",
        "coordinates": [
          -53.0374,
          -27.2488
        ]
      }
    },
    {
      "type": "Feature",
      "properties": {
        "": 8,
        "CITY": "Alto Alegre",
        "AREA": 115.335,
        "ESTIMATED_POP": 1663,
        "IDHM": 0.747,
        "IDHM_Renda": 0.756,
        "geometry": "POINT (-52.9908 -28.7747)"
      },
      "geometry": {
        "type": "Point",
        "coordinates": [
          -52.9908,
          -28.7747
        ]
      }
    },
    {
      "type": "Feature",
      "properties": {
        "": 9,
        "CITY": "Alto Feliz",
        "AREA": 78.852,
        "ESTIMATED_POP": 3020,
        "IDHM": 0.734,
        "IDHM_Renda": 0.74,
        "geometry": "POINT (-51.3158 -29.3901)"
      },
      "geometry": {
        "type": "Point",
        "coordinates": [
          -51.3158,
          -29.3901
        ]
      }
    },
    {
      "type": "Feature",
      "properties": {
        "": 10,
        "CITY": "Alvorada",
        "AREA": 71.602,
        "ESTIMATED_POP": 209213,
        "IDHM": 0.699,
        "IDHM_Renda": 0.694,
        "geometry": "POINT (-51.0777 -29.9975)"
      },
      "geometry": {
        "type": "Point",
        "coordinates": [
          -51.0777,
          -29.9975
        ]
      }
    },
    {
      "type": "Feature",
      "properties": {
        "": 11,
        "CITY": "Amaral Ferrador",
        "AREA": 505.983,
        "ESTIMATED_POP": 6974,
        "IDHM": 0.624,
        "IDHM_Renda": 0.664,
        "geometry": "POINT (-52.2513 -30.8751)"
      },
      "geometry": {
        "type": "Point",
        "coordinates": [
          -52.2513,
          -30.8751
        ]
      }
    },
    {
      "type": "Feature",
      "properties": {
        "": 12,
        "CITY": "Ametista Do Sul",
        "AREA": 93.704,
        "ESTIMATED_POP": 7416,
        "IDHM": 0.682,
        "IDHM_Renda": 0.697,
        "geometry": "POINT (-53.1922 -27.3564)"
      },
      "geometry": {
        "type": "Point",
        "coordinates": [
          -53.1922,
          -27.3564
        ]
      }
    },
    {
      "type": "Feature",
      "properties": {
        "": 13,
        "CITY": "André Da Rocha",
        "AREA": 329.4,
        "ESTIMATED_POP": 1324,
        "IDHM": 0.72,
        "IDHM_Renda": 0.738,
        "geometry": "POINT (-51.5737 -28.632)"
      },
      "geometry": {
        "type": "Point",
        "coordinates": [
          -51.5737,
          -28.632
        ]
      }
    },
    {
      "type": "Feature",
      "properties": {
        "": 14,
        "CITY": "Anta Gorda",
        "AREA": 242.262,
        "ESTIMATED_POP": 6003,
        "IDHM": 0.74,
        "IDHM_Renda": 0.742,
        "geometry": "POINT (-52.0158 -28.9709)"
      },
      "geometry": {
        "type": "Point",
        "coordinates": [
          -52.0158,
          -28.9709
        ]
      }
    },
    {
      "type": "Feature",
      "properties": {
        "": 15,
        "CITY": "Antônio Prado",
        "AREA": 348.148,
        "ESTIMATED_POP": 13055,
        "IDHM": 0.758,
        "IDHM_Renda": 0.777,
        "geometry": "POINT (-51.2836 -28.8554)"
      },
      "geometry": {
        "type": "Point",
        "coordinates": [
          -51.2836,
          -28.8554
        ]
      }
    },
    {
      "type": "Feature",
      "properties": {
        "": 16,
        "CITY": "Arambaré",
        "AREA": 518.193,
        "ESTIMATED_POP": 3600,
        "IDHM": 0.691,
        "IDHM_Renda": 0.694,
        "geometry": "POINT (-51.5013 -30.9093)"
      },
      "geometry": {
        "type": "Point",
        "coordinates": [
          -51.5013,
          -30.9093
        ]
      }
    },
    {
      "type": "Feature",
      "properties": {
        "": 17,
        "CITY": "Araricá",
        "AREA": 35.165,
        "ESTIMATED_POP": 5622,
        "IDHM": 0.679,
        "IDHM_Renda": 0.696,
        "geometry": "POINT (-50.9257 -29.6172)"
      },
      "geometry": {
        "type": "Point",
        "coordinates": [
          -50.9257,
          -29.6172
        ]
      }
    },
    {
      "type": "Feature",
      "properties": {
        "": 18,
        "CITY": "Aratiba",
        "AREA": 342.279,
        "ESTIMATED_POP": 6283,
        "IDHM": 0.772,
        "IDHM_Renda": 0.801,
        "geometry": "POINT (-52.3038 -27.3944)"
      },
      "geometry": {
        "type": "Point",
        "coordinates": [
          -52.3038,
          -27.3944
        ]
      }
    },
    {
      "type": "Feature",
      "properties": {
        "": 19,
        "CITY": "Arroio Do Meio",
        "AREA": 157.508,
        "ESTIMATED_POP": 20637,
        "IDHM": 0.769,
        "IDHM_Renda": 0.75,
        "geometry": "POINT (-51.9474 -29.3989)"
      },
      "geometry": {
        "type": "Point",
        "coordinates": [
          -51.9474,
          -29.3989
        ]
      }
    },
    {
      "type": "Feature",
      "properties": {
        "": 20,
        "CITY": "Arroio Do Padre",
        "AREA": 124.693,
        "ESTIMATED_POP": 2921,
        "IDHM": 0.669,
        "IDHM_Renda": 0.756,
        "geometry": "POINT (-52.4333 -31.4406)"
      },
      "geometry": {
        "type": "Point",
        "coordinates": [
          -52.4333,
          -31.4406
        ]
      }
    },
    {
      "type": "Feature",
      "properties": {
        "": 21,
        "CITY": "Arroio Do Sal",
        "AREA": 119.163,
        "ESTIMATED_POP": 9842,
        "IDHM": 0.74,
        "IDHM_Renda": 0.74,
        "geometry": "POINT (-49.933 -29.593)"
      },
      "geometry": {
        "type": "Point",
        "coordinates": [
          -49.933,
          -29.593
        ]
      }
    },
    {
      "type": "Feature",
      "properties": {
        "": 22,
        "CITY": "Arroio Do Tigre",
        "AREA": 315.132,
        "ESTIMATED_POP": 13332,
        "IDHM": 0.707,
        "IDHM_Renda": 0.708,
        "geometry": "POINT (-53.0864 -29.3359)"
      },
      "geometry": {
        "type": "Point",
        "coordinates": [
          -53.0864,
          -29.3359
        ]
      }
    },
    {
      "type": "Feature",
      "properties": {
        "": 23,
        "CITY": "Arroio Dos Ratos",
        "AREA": 425.21,
        "ESTIMATED_POP": 14123,
        "IDHM": 0.698,
        "IDHM_Renda": 0.7,
        "geometry": "POINT (-51.7338 -30.09)"
      },
      "geometry": {
        "type": "Point",
        "coordinates": [
          -51.7338,
          -30.09
        ]
      }
    },
    {
      "type": "Feature",
      "properties": {
        "": 24,
        "CITY": "Arroio Grande",
        "AREA": 2514.763,
        "ESTIMATED_POP": 18351,
        "IDHM": 0.657,
        "IDHM_Renda": 0.673,
        "geometry": "POINT (-53.0822 -32.2363)"
      },
      "geometry": {
        "type": "Point",
        "coordinates": [
          -53.0822,
          -32.2363
        ]
      }
    },
    {
      "type": "Feature",
      "properties": {
        "": 25,
        "CITY": "Arvorezinha",
        "AREA": 270.241,
        "ESTIMATED_POP": 10425,
        "IDHM": 0.694,
        "IDHM_Renda": 0.713,
        "geometry": "POINT (-52.1795 -28.873)"
      },
      "geometry": {
        "type": "Point",
        "coordinates": [
          -52.1795,
          -28.873
        ]
      }
    },
    {
      "type": "Feature",
      "properties": {
        "": 26,
        "CITY": "Augusto Pestana",
        "AREA": 347.057,
        "ESTIMATED_POP": 6706,
        "IDHM": 0.743,
        "IDHM_Renda": 0.779,
        "geometry": "POINT (-53.9895 -28.5134)"
      },
      "geometry": {
        "type": "Point",
        "coordinates": [
          -53.9895,
          -28.5134
        ]
      }
    },
    {
      "type": "Feature",
      "properties": {
        "": 27,
        "CITY": "Bagé",
        "AREA": 4090.36,
        "ESTIMATED_POP": 120943,
        "IDHM": 0.74,
        "IDHM_Renda": 0.739,
        "geometry": "POINT (-54.1071 -31.3305)"
      },
      "geometry": {
        "type": "Point",
        "coordinates": [
          -54.1071,
          -31.3305
        ]
      }
    },
    {
      "type": "Feature",
      "properties": {
        "": 28,
        "CITY": "Balneário Pinhal",
        "AREA": 102.386,
        "ESTIMATED_POP": 13760,
        "IDHM": 0.696,
        "IDHM_Renda": 0.71,
        "geometry": "POINT (-50.2367 -30.2398)"
      },
      "geometry": {
        "type": "Point",
        "coordinates": [
          -50.2367,
          -30.2398
        ]
      }
    },
    {
      "type": "Feature",
      "properties": {
        "": 29,
        "CITY": "Barra Do Guarita",
        "AREA": 62.874,
        "ESTIMATED_POP": 3238,
        "IDHM": 0.734,
        "IDHM_Renda": 0.696,
        "geometry": "POINT (-53.7144 -27.1881)"
      },
      "geometry": {
        "type": "Point",
        "coordinates": [
          -53.7144,
          -27.1881
        ]
      }
    },
    {
      "type": "Feature",
      "properties": {
        "": 30,
        "CITY": "Barra Do Quaraí",
        "AREA": 1055.937,
        "ESTIMATED_POP": 4202,
        "IDHM": 0.662,
        "IDHM_Renda": 0.659,
        "geometry": "POINT (-57.5571 -30.2111)"
      },
      "geometry": {
        "type": "Point",
        "coordinates": [
          -57.5571,
          -30.2111
        ]
      }
    },
    {
      "type": "Feature",
      "properties": {
        "": 31,
        "CITY": "Barra Do Ribeiro",
        "AREA": 729.375,
        "ESTIMATED_POP": 13423,
        "IDHM": 0.67,
        "IDHM_Renda": 0.691,
        "geometry": "POINT (-51.3009 -30.2927)"
      },
      "geometry": {
        "type": "Point",
        "coordinates": [
          -51.3009,
          -30.2927
        ]
      }
    },
    {
      "type": "Feature",
      "properties": {
        "": 32,
        "CITY": "Barra Do Rio Azul",
        "AREA": 146.995,
        "ESTIMATED_POP": 1726,
        "IDHM": 0.723,
        "IDHM_Renda": 0.703,
        "geometry": "POINT (-52.4141 -27.4088)"
      },
      "geometry": {
        "type": "Point",
        "coordinates": [
          -52.4141,
          -27.4088
        ]
      }
    },
    {
      "type": "Feature",
      "properties": {
        "": 33,
        "CITY": "Barra Funda",
        "AREA": 60.437,
        "ESTIMATED_POP": 2527,
        "IDHM": 0.763,
        "IDHM_Renda": 0.731,
        "geometry": "POINT (-53.0363 -27.9238)"
      },
      "geometry": {
        "type": "Point",
        "coordinates": [
          -53.0363,
          -27.9238
        ]
      }
    },
    {
      "type": "Feature",
      "properties": {
        "": 34,
        "CITY": "Barracão",
        "AREA": 515.469,
        "ESTIMATED_POP": 5295,
        "IDHM": 0.71,
        "IDHM_Renda": 0.711,
        "geometry": "POINT (-51.4602 -27.6802)"
      },
      "geometry": {
        "type": "Point",
        "coordinates": [
          -51.4602,
          -27.6802
        ]
      }
    },
    {
      "type": "Feature",
      "properties": {
        "": 35,
        "CITY": "Barros Cassal",
        "AREA": 648.896,
        "ESTIMATED_POP": 11216,
        "IDHM": 0.65,
        "IDHM_Renda": 0.69,
        "geometry": "POINT (-52.5878 -29.0877)"
      },
      "geometry": {
        "type": "Point",
        "coordinates": [
          -52.5878,
          -29.0877
        ]
      }
    },
    {
      "type": "Feature",
      "properties": {
        "": 36,
        "CITY": "Barão",
        "AREA": 124.563,
        "ESTIMATED_POP": 6139,
        "IDHM": 0.748,
        "IDHM_Renda": 0.767,
        "geometry": "POINT (-51.4975 -29.3809)"
      },
      "geometry": {
        "type": "Point",
        "coordinates": [
          -51.4975,
          -29.3809
        ]
      }
    },
    {
      "type": "Feature",
      "properties": {
        "": 37,
        "CITY": "Barão De Cotegipe",
        "AREA": 260.505,
        "ESTIMATED_POP": 6627,
        "IDHM": 0.719,
        "IDHM_Renda": 0.745,
        "geometry": "POINT (-52.3778 -27.6171)"
      },
      "geometry": {
        "type": "Point",
        "coordinates": [
          -52.3778,
          -27.6171
        ]
      }
    },
    {
      "type": "Feature",
      "properties": {
        "": 38,
        "CITY": "Barão Do Triunfo",
        "AREA": 436.481,
        "ESTIMATED_POP": 7454,
        "IDHM": 0.61,
        "IDHM_Renda": 0.645,
        "geometry": "POINT (-51.7377 -30.3905)"
      },
      "geometry": {
        "type": "Point",
        "coordinates": [
          -51.7377,
          -30.3905
        ]
      }
    },
    {
      "type": "Feature",
      "properties": {
        "": 39,
        "CITY": "Benjamin Constant Do Sul",
        "AREA": 132.351,
        "ESTIMATED_POP": 2031,
        "IDHM": 0.619,
        "IDHM_Renda": 0.601,
        "geometry": "POINT (-52.6022 -27.5086)"
      },
      "geometry": {
        "type": "Point",
        "coordinates": [
          -52.6022,
          -27.5086
        ]
      }
    },
    {
      "type": "Feature",
      "properties": {
        "": 40,
        "CITY": "Bento Gonçalves",
        "AREA": 273.955,
        "ESTIMATED_POP": 119049,
        "IDHM": 0.778,
        "IDHM_Renda": 0.805,
        "geometry": "POINT (-51.5156 -29.1674)"
      },
      "geometry": {
        "type": "Point",
        "coordinates": [
          -51.5156,
          -29.1674
        ]
      }
    },
    {
      "type": "Feature",
      "properties": {
        "": 41,
        "CITY": "Boa Vista Das Missões",
        "AREA": 194.815,
        "ESTIMATED_POP": 2104,
        "IDHM": 0.676,
        "IDHM_Renda": 0.666,
        "geometry": "POINT (-53.3128 -27.6661)"
      },
      "geometry": {
        "type": "Point",
        "coordinates": [
          -53.3128,
          -27.6661
        ]
      }
    },
    {
      "type": "Feature",
      "properties": {
        "": 42,
        "CITY": "Boa Vista Do Buricá",
        "AREA": 109.557,
        "ESTIMATED_POP": 6712,
        "IDHM": 0.762,
        "IDHM_Renda": 0.761,
        "geometry": "POINT (-54.1095 -27.6716)"
      },
      "geometry": {
        "type": "Point",
        "coordinates": [
          -54.1095,
          -27.6716
        ]
      }
    },
    {
      "type": "Feature",
      "properties": {
        "": 43,
        "CITY": "Boa Vista Do Cadeado",
        "AREA": 701.314,
        "ESTIMATED_POP": 2473,
        "IDHM": 0.703,
        "IDHM_Renda": 0.692,
        "geometry": "POINT (-53.8137 -28.5774)"
      },
      "geometry": {
        "type": "Point",
        "coordinates": [
          -53.8137,
          -28.5774
        ]
      }
    },
    {
      "type": "Feature",
      "properties": {
        "": 44,
        "CITY": "Boa Vista Do Incra",
        "AREA": 503.471,
        "ESTIMATED_POP": 2590,
        "IDHM": 0.731,
        "IDHM_Renda": 0.703,
        "geometry": "POINT (-53.3887 -28.8185)"
      },
      "geometry": {
        "type": "Point",
        "coordinates": [
          -53.3887,
          -28.8185
        ]
      }
    },
    {
      "type": "Feature",
      "properties": {
        "": 45,
        "CITY": "Boa Vista Do Sul",
        "AREA": 92.926,
        "ESTIMATED_POP": 2788,
        "IDHM": 0.728,
        "IDHM_Renda": 0.77,
        "geometry": "POINT (-51.6773 -29.3501)"
      },
      "geometry": {
        "type": "Point",
        "coordinates": [
          -51.6773,
          -29.3501
        ]
      }
    },
    {
      "type": "Feature",
      "properties": {
        "": 46,
        "CITY": "Bom Jesus",
        "AREA": 2623.12,
        "ESTIMATED_POP": 11391,
        "IDHM": 0.666,
        "IDHM_Renda": 0.697,
        "geometry": "POINT (-50.4333 -28.6706)"
      },
      "geometry": {
        "type": "Point",
        "coordinates": [
          -50.4333,
          -28.6706
        ]
      }
    },
    {
      "type": "Feature",
      "properties": {
        "": 47,
        "CITY": "Bom Princípio",
        "AREA": 88.779,
        "ESTIMATED_POP": 13846,
        "IDHM": 0.746,
        "IDHM_Renda": 0.751,
        "geometry": "POINT (-51.3555 -29.4945)"
      },
      "geometry": {
        "type": "Point",
        "coordinates": [
          -51.3555,
          -29.4945
        ]
      }
    },
    {
      "type": "Feature",
      "properties": {
        "": 48,
        "CITY": "Bom Progresso",
        "AREA": 88.741,
        "ESTIMATED_POP": 1987,
        "IDHM": 0.723,
        "IDHM_Renda": 0.7,
        "geometry": "POINT (-53.8668 -27.5468)"
      },
      "geometry": {
        "type": "Point",
        "coordinates": [
          -53.8668,
          -27.5468
        ]
      }
    },
    {
      "type": "Feature",
      "properties": {
        "": 49,
        "CITY": "Bom Retiro Do Sul",
        "AREA": 102.326,
        "ESTIMATED_POP": 12265,
        "IDHM": 0.739,
        "IDHM_Renda": 0.725,
        "geometry": "POINT (-51.9438 -29.6074)"
      },
      "geometry": {
        "type": "Point",
        "coordinates": [
          -51.9438,
          -29.6074
        ]
      }
    },
    {
      "type": "Feature",
      "properties": {
        "": 50,
        "CITY": "Boqueirão Do Leão",
        "AREA": 265.58,
        "ESTIMATED_POP": 7726,
        "IDHM": 0.7,
        "IDHM_Renda": 0.725,
        "geometry": "POINT (-52.4281 -29.3052)"
      },
      "geometry": {
        "type": "Point",
        "coordinates": [
          -52.4281,
          -29.3052
        ]
      }
    },
    {
      "type": "Feature",
      "properties": {
        "": 51,
        "CITY": "Bossoroca",
        "AREA": 1610.056,
        "ESTIMATED_POP": 6356,
        "IDHM": 0.692,
        "IDHM_Renda": 0.665,
        "geometry": "POINT (-54.9098 -28.7307)"
      },
      "geometry": {
        "type": "Point",
        "coordinates": [
          -54.9098,
          -28.7307
        ]
      }
    },
    {
      "type": "Feature",
      "properties": {
        "": 52,
        "CITY": "Bozano",
        "AREA": 200.55,
        "ESTIMATED_POP": 2135,
        "IDHM": 0.745,
        "IDHM_Renda": 0.773,
        "geometry": "POINT (-53.7724 -28.3663)"
      },
      "geometry": {
        "type": "Point",
        "coordinates": [
          -53.7724,
          -28.3663
        ]
      }
    },
    {
      "type": "Feature",
      "properties": {
        "": 53,
        "CITY": "Braga",
        "AREA": 128.992,
        "ESTIMATED_POP": 3397,
        "IDHM": 0.674,
        "IDHM_Renda": 0.656,
        "geometry": "POINT (-53.7443 -27.6192)"
      },
      "geometry": {
        "type": "Point",
        "coordinates": [
          -53.7443,
          -27.6192
        ]
      }
    },
    {
      "type": "Feature",
      "properties": {
        "": 54,
        "CITY": "Brochier",
        "AREA": 105.353,
        "ESTIMATED_POP": 5043,
        "IDHM": 0.699,
        "IDHM_Renda": 0.723,
        "geometry": "POINT (-51.5889 -29.5555)"
      },
      "geometry": {
        "type": "Point",
        "coordinates": [
          -51.5889,
          -29.5555
        ]
      }
    },
    {
      "type": "Feature",
      "properties": {
        "": 55,
        "CITY": "Butiá",
        "AREA": 752.187,
        "ESTIMATED_POP": 20929,
        "IDHM": 0.689,
        "IDHM_Renda": 0.691,
        "geometry": "POINT (-51.9615 -30.1161)"
      },
      "geometry": {
        "type": "Point",
        "coordinates": [
          -51.9615,
          -30.1161
        ]
      }
    },
    {
      "type": "Feature",
      "properties": {
        "": 56,
        "CITY": "Cacequi",
        "AREA": 2373.174,
        "ESTIMATED_POP": 12705,
        "IDHM": 0.7,
        "IDHM_Renda": 0.68,
        "geometry": "POINT (-54.8277 -29.8803)"
      },
      "geometry": {
        "type": "Point",
        "coordinates": [
          -54.8277,
          -29.8803
        ]
      }
    },
    {
      "type": "Feature",
      "properties": {
        "": 57,
        "CITY": "Cachoeira Do Sul",
        "AREA": 3735.026,
        "ESTIMATED_POP": 82547,
        "IDHM": 0.742,
        "IDHM_Renda": 0.739,
        "geometry": "POINT (-52.8934 -30.0458)"
      },
      "geometry": {
        "type": "Point",
        "coordinates": [
          -52.8934,
          -30.0458
        ]
      }
    },
    {
      "type": "Feature",
      "properties": {
        "": 58,
        "CITY": "Cachoeirinha",
        "AREA": 43.9,
        "ESTIMATED_POP": 129307,
        "IDHM": 0.757,
        "IDHM_Renda": 0.749,
        "geometry": "POINT (-51.0937 -29.9506)"
      },
      "geometry": {
        "type": "Point",
        "coordinates": [
          -51.0937,
          -29.9506
        ]
      }
    },
    {
      "type": "Feature",
      "properties": {
        "": 59,
        "CITY": "Cacique Doble",
        "AREA": 203.797,
        "ESTIMATED_POP": 5055,
        "IDHM": 0.662,
        "IDHM_Renda": 0.677,
        "geometry": "POINT (-51.6641 -27.7682)"
      },
      "geometry": {
        "type": "Point",
        "coordinates": [
          -51.6641,
          -27.7682
        ]
      }
    },
    {
      "type": "Feature",
      "properties": {
        "": 60,
        "CITY": "Caibaté",
        "AREA": 260.561,
        "ESTIMATED_POP": 4856,
        "IDHM": 0.719,
        "IDHM_Renda": 0.709,
        "geometry": "POINT (-54.6379 -28.2911)"
      },
      "geometry": {
        "type": "Point",
        "coordinates": [
          -54.6379,
          -28.2911
        ]
      }
    },
    {
      "type": "Feature",
      "properties": {
        "": 61,
        "CITY": "Caiçara",
        "AREA": 188.983,
        "ESTIMATED_POP": 4788,
        "IDHM": 0.699,
        "IDHM_Renda": 0.721,
        "geometry": "POINT (-53.4319 -27.2809)"
      },
      "geometry": {
        "type": "Point",
        "coordinates": [
          -53.4319,
          -27.2809
        ]
      }
    },
    {
      "type": "Feature",
      "properties": {
        "": 62,
        "CITY": "Camaquã",
        "AREA": 1680.168,
        "ESTIMATED_POP": 66034,
        "IDHM": 0.697,
        "IDHM_Renda": 0.715,
        "geometry": "POINT (-51.8146 -30.8507)"
      },
      "geometry": {
        "type": "Point",
        "coordinates": [
          -51.8146,
          -30.8507
        ]
      }
    },
    {
      "type": "Feature",
      "properties": {
        "": 63,
        "CITY": "Camargo",
        "AREA": 138.069,
        "ESTIMATED_POP": 2724,
        "IDHM": 0.736,
        "IDHM_Renda": 0.762,
        "geometry": "POINT (-52.2038 -28.5892)"
      },
      "geometry": {
        "type": "Point",
        "coordinates": [
          -52.2038,
          -28.5892
        ]
      }
    },
    {
      "type": "Feature",
      "properties": {
        "": 64,
        "CITY": "Cambará Do Sul",
        "AREA": 1207.916,
        "ESTIMATED_POP": 6456,
        "IDHM": 0.697,
        "IDHM_Renda": 0.705,
        "geometry": "POINT (-50.1438 -29.0482)"
      },
      "geometry": {
        "type": "Point",
        "coordinates": [
          -50.1438,
          -29.0482
        ]
      }
    },
    {
      "type": "Feature",
      "properties": {
        "": 65,
        "CITY": "Campestre Da Serra",
        "AREA": 537.994,
        "ESTIMATED_POP": 3380,
        "IDHM": 0.706,
        "IDHM_Renda": 0.713,
        "geometry": "POINT (-51.0957 -28.7965)"
      },
      "geometry": {
        "type": "Point",
        "coordinates": [
          -51.0957,
          -28.7965
        ]
      }
    },
    {
      "type": "Feature",
      "properties": {
        "": 66,
        "CITY": "Campina Das Missões",
        "AREA": 224.801,
        "ESTIMATED_POP": 5553,
        "IDHM": 0.738,
        "IDHM_Renda": 0.698,
        "geometry": "POINT (-54.8453 -27.9917)"
      },
      "geometry": {
        "type": "Point",
        "coordinates": [
          -54.8453,
          -27.9917
        ]
      }
    },
    {
      "type": "Feature",
      "properties": {
        "": 67,
        "CITY": "Campinas Do Sul",
        "AREA": 276.162,
        "ESTIMATED_POP": 5471,
        "IDHM": 0.76,
        "IDHM_Renda": 0.753,
        "geometry": "POINT (-52.6331 -27.7116)"
      },
      "geometry": {
        "type": "Point",
        "coordinates": [
          -52.6331,
          -27.7116
        ]
      }
    },
    {
      "type": "Feature",
      "properties": {
        "": 68,
        "CITY": "Campo Bom",
        "AREA": 60.811,
        "ESTIMATED_POP": 66156,
        "IDHM": 0.745,
        "IDHM_Renda": 0.755,
        "geometry": "POINT (-51.0589 -29.6757)"
      },
      "geometry": {
        "type": "Point",
        "coordinates": [
          -51.0589,
          -29.6757
        ]
      }
    },
    {
      "type": "Feature",
      "properties": {
        "": 69,
        "CITY": "Campo Novo",
        "AREA": 222.073,
        "ESTIMATED_POP": 4596,
        "IDHM": 0.703,
        "IDHM_Renda": 0.677,
        "geometry": "POINT (-53.8028 -27.6745)"
      },
      "geometry": {
        "type": "Point",
        "coordinates": [
          -53.8028,
          -27.6745
        ]
      }
    },
    {
      "type": "Feature",
      "properties": {
        "": 70,
        "CITY": "Campos Borges",
        "AREA": 226.202,
        "ESTIMATED_POP": 3345,
        "IDHM": 0.708,
        "IDHM_Renda": 0.704,
        "geometry": "POINT (-52.9989 -28.8921)"
      },
      "geometry": {
        "type": "Point",
        "coordinates": [
          -52.9989,
          -28.8921
        ]
      }
    },
    {
      "type": "Feature",
      "properties": {
        "": 71,
        "CITY": "Candelária",
        "AREA": 944.058,
        "ESTIMATED_POP": 31306,
        "IDHM": 0.674,
        "IDHM_Renda": 0.699,
        "geometry": "POINT (-52.7897 -29.6713)"
      },
      "geometry": {
        "type": "Point",
        "coordinates": [
          -52.7897,
          -29.6713
        ]
      }
    },
    {
      "type": "Feature",
      "properties": {
        "": 72,
        "CITY": "Candiota",
        "AREA": 933.628,
        "ESTIMATED_POP": 9519,
        "IDHM": 0.698,
        "IDHM_Renda": 0.704,
        "geometry": "POINT (-53.6778 -31.561)"
      },
      "geometry": {
        "type": "Point",
        "coordinates": [
          -53.6778,
          -31.561
        ]
      }
    },
    {
      "type": "Feature",
      "properties": {
        "": 73,
        "CITY": "Canela",
        "AREA": 253.73,
        "ESTIMATED_POP": 44489,
        "IDHM": 0.748,
        "IDHM_Renda": 0.738,
        "geometry": "POINT (-50.8149 -29.358)"
      },
      "geometry": {
        "type": "Point",
        "coordinates": [
          -50.8149,
          -29.358
        ]
      }
    },
    {
      "type": "Feature",
      "properties": {
        "": 74,
        "CITY": "Canguçu",
        "AREA": 3526.253,
        "ESTIMATED_POP": 55871,
        "IDHM": 0.65,
        "IDHM_Renda": 0.683,
        "geometry": "POINT (-52.6763 -31.3939)"
      },
      "geometry": {
        "type": "Point",
        "coordinates": [
          -52.6763,
          -31.3939
        ]
      }
    },
    {
      "type": "Feature",
      "properties": {
        "": 75,
        "CITY": "Canoas",
        "AREA": 130.789,
        "ESTIMATED_POP": 344957,
        "IDHM": 0.75,
        "IDHM_Renda": 0.768,
        "geometry": "POINT (-51.181 -29.9187)"
      },
      "geometry": {
        "type": "Point",
        "coordinates": [
          -51.181,
          -29.9187
        ]
      }
    },
    {
      "type": "Feature",
      "properties": {
        "": 76,
        "CITY": "Canudos Do Vale",
        "AREA": 82.292,
        "ESTIMATED_POP": 1729,
        "IDHM": 0.713,
        "IDHM_Renda": 0.751,
        "geometry": "POINT (-52.2324 -29.3235)"
      },
      "geometry": {
        "type": "Point",
        "coordinates": [
          -52.2324,
          -29.3235
        ]
      }
    },
    {
      "type": "Feature",
      "properties": {
        "": 77,
        "CITY": "Capela De Santana",
        "AREA": 183.065,
        "ESTIMATED_POP": 11810,
        "IDHM": 0.661,
        "IDHM_Renda": 0.675,
        "geometry": "POINT (-51.3218 -29.7019)"
      },
      "geometry": {
        "type": "Point",
        "coordinates": [
          -51.3218,
          -29.7019
        ]
      }
    },
    {
      "type": "Feature",
      "properties": {
        "": 78,
        "CITY": "Capitão",
        "AREA": 73.967,
        "ESTIMATED_POP": 2750,
        "IDHM": 0.746,
        "IDHM_Renda": 0.747,
        "geometry": "POINT (-51.986 -29.2695)"
      },
      "geometry": {
        "type": "Point",
        "coordinates": [
          -51.986,
          -29.2695
        ]
      }
    },
    {
      "type": "Feature",
      "properties": {
        "": 79,
        "CITY": "Capivari Do Sul",
        "AREA": 412.889,
        "ESTIMATED_POP": 4589,
        "IDHM": 0.766,
        "IDHM_Renda": 0.805,
        "geometry": "POINT (-50.5088 -30.1497)"
      },
      "geometry": {
        "type": "Point",
        "coordinates": [
          -50.5088,
          -30.1497
        ]
      }
    },
    {
      "type": "Feature",
      "properties": {
        "": 80,
        "CITY": "Capão Bonito Do Sul",
        "AREA": 527.119,
        "ESTIMATED_POP": 1668,
        "IDHM": 0.637,
        "IDHM_Renda": 0.654,
        "geometry": "POINT (-51.3952 -28.126)"
      },
      "geometry": {
        "type": "Point",
        "coordinates": [
          -51.3952,
          -28.126
        ]
      }
    },
    {
      "type": "Feature",
      "properties": {
        "": 81,
        "CITY": "Capão Da Canoa",
        "AREA": 98.29,
        "ESTIMATED_POP": 52004,
        "IDHM": 0.743,
        "IDHM_Renda": 0.756,
        "geometry": "POINT (-50.02 -29.7615)"
      },
      "geometry": {
        "type": "Point",
        "coordinates": [
          -50.02,
          -29.7615
        ]
      }
    },
    {
      "type": "Feature",
      "properties": {
        "": 82,
        "CITY": "Capão Do Cipó",
        "AREA": 1007.796,
        "ESTIMATED_POP": 3602,
        "IDHM": 0.672,
        "IDHM_Renda": 0.639,
        "geometry": "POINT (-54.5547 -28.9316)"
      },
      "geometry": {
        "type": "Point",
        "coordinates": [
          -54.5547,
          -28.9316
        ]
      }
    },
    {
      "type": "Feature",
      "properties": {
        "": 83,
        "CITY": "Capão Do Leão",
        "AREA": 785.373,
        "ESTIMATED_POP": 25297,
        "IDHM": 0.637,
        "IDHM_Renda": 0.662,
        "geometry": "POINT (-52.487 -31.7668)"
      },
      "geometry": {
        "type": "Point",
        "coordinates": [
          -52.487,
          -31.7668
        ]
      }
    },
    {
      "type": "Feature",
      "properties": {
        "": 84,
        "CITY": "Carazinho",
        "AREA": 665.515,
        "ESTIMATED_POP": 61949,
        "IDHM": 0.766,
        "IDHM_Renda": 0.756,
        "geometry": "POINT (-52.7919 -28.2865)"
      },
      "geometry": {
        "type": "Point",
        "coordinates": [
          -52.7919,
          -28.2865
        ]
      }
    },
    {
      "type": "Feature",
      "properties": {
        "": 85,
        "CITY": "Caraá",
        "AREA": 294.456,
        "ESTIMATED_POP": 8187,
        "IDHM": 0.652,
        "IDHM_Renda": 0.661,
        "geometry": "POINT (-50.4358 -29.7786)"
      },
      "geometry": {
        "type": "Point",
        "coordinates": [
          -50.4358,
          -29.7786
        ]
      }
    },
    {
      "type": "Feature",
      "properties": {
        "": 86,
        "CITY": "Carlos Barbosa",
        "AREA": 229.993,
        "ESTIMATED_POP": 29409,
        "IDHM": 0.796,
        "IDHM_Renda": 0.835,
        "geometry": "POINT (-51.5038 -29.2983)"
      },
      "geometry": {
        "type": "Point",
        "coordinates": [
          -51.5038,
          -29.2983
        ]
      }
    },
    {
      "type": "Feature",
      "properties": {
        "": 87,
        "CITY": "Carlos Gomes",
        "AREA": 83.155,
        "ESTIMATED_POP": 1404,
        "IDHM": 0.739,
        "IDHM_Renda": 0.732,
        "geometry": "POINT (-51.9176 -27.7149)"
      },
      "geometry": {
        "type": "Point",
        "coordinates": [
          -51.9176,
          -27.7149
        ]
      }
    },
    {
      "type": "Feature",
      "properties": {
        "": 88,
        "CITY": "Casca",
        "AREA": 272.018,
        "ESTIMATED_POP": 9010,
        "IDHM": 0.785,
        "IDHM_Renda": 0.778,
        "geometry": "POINT (-51.9832 -28.5599)"
      },
      "geometry": {
        "type": "Point",
        "coordinates": [
          -51.9832,
          -28.5599
        ]
      }
    },
    {
      "type": "Feature",
      "properties": {
        "": 89,
        "CITY": "Caseiros",
        "AREA": 235.863,
        "ESTIMATED_POP": 3189,
        "IDHM": 0.703,
        "IDHM_Renda": 0.696,
        "geometry": "POINT (-51.6927 -28.2736)"
      },
      "geometry": {
        "type": "Point",
        "coordinates": [
          -51.6927,
          -28.2736
        ]
      }
    },
    {
      "type": "Feature",
      "properties": {
        "": 90,
        "CITY": "Catuípe",
        "AREA": 583.2,
        "ESTIMATED_POP": 8851,
        "IDHM": 0.739,
        "IDHM_Renda": 0.763,
        "geometry": "POINT (-54.0124 -28.2542)"
      },
      "geometry": {
        "type": "Point",
        "coordinates": [
          -54.0124,
          -28.2542
        ]
      }
    },
    {
      "type": "Feature",
      "properties": {
        "": 91,
        "CITY": "Caxias Do Sul",
        "AREA": 1652.704,
        "ESTIMATED_POP": 504069,
        "IDHM": 0.782,
        "IDHM_Renda": 0.812,
        "geometry": "POINT (-51.1789 -29.1669)"
      },
      "geometry": {
        "type": "Point",
        "coordinates": [
          -51.1789,
          -29.1669
        ]
      }
    },
    {
      "type": "Feature",
      "properties": {
        "": 92,
        "CITY": "Caçapava Do Sul",
        "AREA": 3047.113,
        "ESTIMATED_POP": 33702,
        "IDHM": 0.704,
        "IDHM_Renda": 0.699,
        "geometry": "POINT (-53.4876 -30.5147)"
      },
      "geometry": {
        "type": "Point",
        "coordinates": [
          -53.4876,
          -30.5147
        ]
      }
    },
    {
      "type": "Feature",
      "properties": {
        "": 93,
        "CITY": "Centenário",
        "AREA": 134.23,
        "ESTIMATED_POP": 2905,
        "IDHM": 0.701,
        "IDHM_Renda": 0.707,
        "geometry": "POINT (-52.0021 -27.7628)"
      },
      "geometry": {
        "type": "Point",
        "coordinates": [
          -52.0021,
          -27.7628
        ]
      }
    },
    {
      "type": "Feature",
      "properties": {
        "": 94,
        "CITY": "Cerrito",
        "AREA": 451.699,
        "ESTIMATED_POP": 6136,
        "IDHM": 0.649,
        "IDHM_Renda": 0.657,
        "geometry": "POINT (-52.8148 -31.8526)"
      },
      "geometry": {
        "type": "Point",
        "coordinates": [
          -52.8148,
          -31.8526
        ]
      }
    },
    {
      "type": "Feature",
      "properties": {
        "": 95,
        "CITY": "Cerro Branco",
        "AREA": 158.025,
        "ESTIMATED_POP": 4676,
        "IDHM": 0.661,
        "IDHM_Renda": 0.671,
        "geometry": "POINT (-52.942 -29.6563)"
      },
      "geometry": {
        "type": "Point",
        "coordinates": [
          -52.942,
          -29.6563
        ]
      }
    },
    {
      "type": "Feature",
      "properties": {
        "": 96,
        "CITY": "Cerro Grande",
        "AREA": 73.438,
        "ESTIMATED_POP": 2327,
        "IDHM": 0.674,
        "IDHM_Renda": 0.676,
        "geometry": "POINT (-53.1659 -27.608)"
      },
      "geometry": {
        "type": "Point",
        "coordinates": [
          -53.1659,
          -27.608
        ]
      }
    },
    {
      "type": "Feature",
      "properties": {
        "": 97,
        "CITY": "Cerro Grande Do Sul",
        "AREA": 324.789,
        "ESTIMATED_POP": 12058,
        "IDHM": 0.66,
        "IDHM_Renda": 0.673,
        "geometry": "POINT (-51.7531 -30.602)"
      },
      "geometry": {
        "type": "Point",
        "coordinates": [
          -51.7531,
          -30.602
        ]
      }
    },
    {
      "type": "Feature",
      "properties": {
        "": 98,
        "CITY": "Cerro Largo",
        "AREA": 176.627,
        "ESTIMATED_POP": 14074,
        "IDHM": 0.764,
        "IDHM_Renda": 0.752,
        "geometry": "POINT (-54.74 -28.1478)"
      },
      "geometry": {
        "type": "Point",
        "coordinates": [
          -54.74,
          -28.1478
        ]
      }
    },
    {
      "type": "Feature",
      "properties": {
        "": 99,
        "CITY": "Chapada",
        "AREA": 684.247,
        "ESTIMATED_POP": 9300,
        "IDHM": 0.757,
        "IDHM_Renda": 0.752,
        "geometry": "POINT (-53.0673 -28.0585)"
      },
      "geometry": {
        "type": "Point",
        "coordinates": [
          -53.0673,
          -28.0585
        ]
      }
    },
    {
      "type": "Feature",
      "properties": {
        "": 100,
        "CITY": "Charqueadas",
        "AREA": 216.512,
        "ESTIMATED_POP": 40301,
        "IDHM": 0.747,
        "IDHM_Renda": 0.726,
        "geometry": "POINT (-51.625 -29.9568)"
      },
      "geometry": {
        "type": "Point",
        "coordinates": [
          -51.625,
          -29.9568
        ]
      }
    },
    {
      "type": "Feature",
      "properties": {
        "": 101,
        "CITY": "Charrua",
        "AREA": 198.556,
        "ESTIMATED_POP": 3306,
        "IDHM": 0.62,
        "IDHM_Renda": 0.699,
        "geometry": "POINT (-52.0294 -27.9528)"
      },
      "geometry": {
        "type": "Point",
        "coordinates": [
          -52.0294,
          -27.9528
        ]
      }
    },
    {
      "type": "Feature",
      "properties": {
        "": 102,
        "CITY": "Chiapetta",
        "AREA": 397.393,
        "ESTIMATED_POP": 3794,
        "IDHM": 0.732,
        "IDHM_Renda": 0.702,
        "geometry": "POINT (-53.9457 -27.9174)"
      },
      "geometry": {
        "type": "Point",
        "coordinates": [
          -53.9457,
          -27.9174
        ]
      }
    },
    {
      "type": "Feature",
      "properties": {
        "": 103,
        "CITY": "Chuvisca",
        "AREA": 220.471,
        "ESTIMATED_POP": 5401,
        "IDHM": 0.616,
        "IDHM_Renda": 0.655,
        "geometry": "POINT (-51.9785 -30.7574)"
      },
      "geometry": {
        "type": "Point",
        "coordinates": [
          -51.9785,
          -30.7574
        ]
      }
    },
    {
      "type": "Feature",
      "properties": {
        "": 104,
        "CITY": "Chuí",
        "AREA": 202.387,
        "ESTIMATED_POP": 6635,
        "IDHM": 0.706,
        "IDHM_Renda": 0.676,
        "geometry": "POINT (-53.4627 -33.6876)"
      },
      "geometry": {
        "type": "Point",
        "coordinates": [
          -53.4627,
          -33.6876
        ]
      }
    },
    {
      "type": "Feature",
      "properties": {
        "": 105,
        "CITY": "Cidreira",
        "AREA": 243.42,
        "ESTIMATED_POP": 15912,
        "IDHM": 0.729,
        "IDHM_Renda": 0.73,
        "geometry": "POINT (-50.2091 -30.1812)"
      },
      "geometry": {
        "type": "Point",
        "coordinates": [
          -50.2091,
          -30.1812
        ]
      }
    },
    {
      "type": "Feature",
      "properties": {
        "": 106,
        "CITY": "Ciríaco",
        "AREA": 274.35,
        "ESTIMATED_POP": 4775,
        "IDHM": 0.719,
        "IDHM_Renda": 0.724,
        "geometry": "POINT (-51.883 -28.3443)"
      },
      "geometry": {
        "type": "Point",
        "coordinates": [
          -51.883,
          -28.3443
        ]
      }
    },
    {
      "type": "Feature",
      "properties": {
        "": 107,
        "CITY": "Colinas",
        "AREA": 58.373,
        "ESTIMATED_POP": 2442,
        "IDHM": 0.765,
        "IDHM_Renda": 0.786,
        "geometry": "POINT (-51.8686 -29.3925)"
      },
      "geometry": {
        "type": "Point",
        "coordinates": [
          -51.8686,
          -29.3925
        ]
      }
    },
    {
      "type": "Feature",
      "properties": {
        "": 108,
        "CITY": "Colorado",
        "AREA": 286.268,
        "ESTIMATED_POP": 3221,
        "IDHM": 0.758,
        "IDHM_Renda": 0.775,
        "geometry": "POINT (-52.9932 -28.5229)"
      },
      "geometry": {
        "type": "Point",
        "coordinates": [
          -52.9932,
          -28.5229
        ]
      }
    },
    {
      "type": "Feature",
      "properties": {
        "": 109,
        "CITY": "Condor",
        "AREA": 465.177,
        "ESTIMATED_POP": 6746,
        "IDHM": 0.747,
        "IDHM_Renda": 0.735,
        "geometry": "POINT (-53.4889 -28.2053)"
      },
      "geometry": {
        "type": "Point",
        "coordinates": [
          -53.4889,
          -28.2053
        ]
      }
    },
    {
      "type": "Feature",
      "properties": {
        "": 110,
        "CITY": "Constantina",
        "AREA": 203.614,
        "ESTIMATED_POP": 9915,
        "IDHM": 0.754,
        "IDHM_Renda": 0.726,
        "geometry": "POINT (-52.9877 -27.7304)"
      },
      "geometry": {
        "type": "Point",
        "coordinates": [
          -52.9877,
          -27.7304
        ]
      }
    },
    {
      "type": "Feature",
      "properties": {
        "": 111,
        "CITY": "Coqueiro Baixo",
        "AREA": 112.277,
        "ESTIMATED_POP": 1507,
        "IDHM": 0.692,
        "IDHM_Renda": 0.703,
        "geometry": "POINT (-52.0946 -29.1793)"
      },
      "geometry": {
        "type": "Point",
        "coordinates": [
          -52.0946,
          -29.1793
        ]
      }
    },
    {
      "type": "Feature",
      "properties": {
        "": 112,
        "CITY": "Coqueiros Do Sul",
        "AREA": 277.637,
        "ESTIMATED_POP": 2327,
        "IDHM": 0.746,
        "IDHM_Renda": 0.806,
        "geometry": "POINT (-52.7788 -28.1174)"
      },
      "geometry": {
        "type": "Point",
        "coordinates": [
          -52.7788,
          -28.1174
        ]
      }
    },
    {
      "type": "Feature",
      "properties": {
        "": 113,
        "CITY": "Coronel Barros",
        "AREA": 163.745,
        "ESTIMATED_POP": 2518,
        "IDHM": 0.744,
        "IDHM_Renda": 0.793,
        "geometry": "POINT (-54.0737 -28.3845)"
      },
      "geometry": {
        "type": "Point",
        "coordinates": [
          -54.0737,
          -28.3845
        ]
      }
    },
    {
      "type": "Feature",
      "properties": {
        "": 114,
        "CITY": "Coronel Bicaco",
        "AREA": 492.124,
        "ESTIMATED_POP": 7385,
        "IDHM": 0.665,
        "IDHM_Renda": 0.667,
        "geometry": "POINT (-53.7091 -27.7179)"
      },
      "geometry": {
        "type": "Point",
        "coordinates": [
          -53.7091,
          -27.7179
        ]
      }
    },
    {
      "type": "Feature",
      "properties": {
        "": 115,
        "CITY": "Coronel Pilar",
        "AREA": 105.447,
        "ESTIMATED_POP": 1641,
        "IDHM": 0.727,
        "IDHM_Renda": 0.766,
        "geometry": "POINT (-51.6849 -29.2727)"
      },
      "geometry": {
        "type": "Point",
        "coordinates": [
          -51.6849,
          -29.2727
        ]
      }
    },
    {
      "type": "Feature",
      "properties": {
        "": 116,
        "CITY": "Cotiporã",
        "AREA": 172.375,
        "ESTIMATED_POP": 3868,
        "IDHM": 0.741,
        "IDHM_Renda": 0.767,
        "geometry": "POINT (-51.6964 -28.9986)"
      },
      "geometry": {
        "type": "Point",
        "coordinates": [
          -51.6964,
          -28.9986
        ]
      }
    },
    {
      "type": "Feature",
      "properties": {
        "": 117,
        "CITY": "Coxilha",
        "AREA": 421.493,
        "ESTIMATED_POP": 2769,
        "IDHM": 0.706,
        "IDHM_Renda": 0.693,
        "geometry": "POINT (-52.3003 -28.1213)"
      },
      "geometry": {
        "type": "Point",
        "coordinates": [
          -52.3003,
          -28.1213
        ]
      }
    },
    {
      "type": "Feature",
      "properties": {
        "": 118,
        "CITY": "Crissiumal",
        "AREA": 363.597,
        "ESTIMATED_POP": 13544,
        "IDHM": 0.712,
        "IDHM_Renda": 0.702,
        "geometry": "POINT (-54.1 -27.498)"
      },
      "geometry": {
        "type": "Point",
        "coordinates": [
          -54.1,
          -27.498
        ]
      }
    },
    {
      "type": "Feature",
      "properties": {
        "": 119,
        "CITY": "Cristal",
        "AREA": 682.138,
        "ESTIMATED_POP": 7950,
        "IDHM": 0.644,
        "IDHM_Renda": 0.687,
        "geometry": "POINT (-52.0494 -30.9993)"
      },
      "geometry": {
        "type": "Point",
        "coordinates": [
          -52.0494,
          -30.9993
        ]
      }
    },
    {
      "type": "Feature",
      "properties": {
        "": 120,
        "CITY": "Cristal Do Sul",
        "AREA": 97.077,
        "ESTIMATED_POP": 2851,
        "IDHM": 0.66,
        "IDHM_Renda": 0.641,
        "geometry": "POINT (-53.2492 -27.4536)"
      },
      "geometry": {
        "type": "Point",
        "coordinates": [
          -53.2492,
          -27.4536
        ]
      }
    },
    {
      "type": "Feature",
      "properties": {
        "": 121,
        "CITY": "Cruz Alta",
        "AREA": 1360.321,
        "ESTIMATED_POP": 60693,
        "IDHM": 0.75,
        "IDHM_Renda": 0.754,
        "geometry": "POINT (-53.6052 -28.6424)"
      },
      "geometry": {
        "type": "Point",
        "coordinates": [
          -53.6052,
          -28.6424
        ]
      }
    },
    {
      "type": "Feature",
      "properties": {
        "": 122,
        "CITY": "Cruzaltense",
        "AREA": 166.883,
        "ESTIMATED_POP": 1870,
        "IDHM": 0.719,
        "IDHM_Renda": 0.724,
        "geometry": "POINT (-52.6481 -27.6649)"
      },
      "geometry": {
        "type": "Point",
        "coordinates": [
          -52.6481,
          -27.6649
        ]
      }
    },
    {
      "type": "Feature",
      "properties": {
        "": 123,
        "CITY": "Cruzeiro Do Sul",
        "AREA": 154.687,
        "ESTIMATED_POP": 12290,
        "IDHM": 0.723,
        "IDHM_Renda": 0.746,
        "geometry": "POINT (-51.9916 -29.5083)"
      },
      "geometry": {
        "type": "Point",
        "coordinates": [
          -51.9916,
          -29.5083
        ]
      }
    },
    {
      "type": "Feature",
      "properties": {
        "": 124,
        "CITY": "Cândido Godói",
        "AREA": 247.047,
        "ESTIMATED_POP": 6246,
        "IDHM": 0.728,
        "IDHM_Renda": 0.72,
        "geometry": "POINT (-54.7528 -27.9513)"
      },
      "geometry": {
        "type": "Point",
        "coordinates": [
          -54.7528,
          -27.9513
        ]
      }
    },
    {
      "type": "Feature",
      "properties": {
        "": 125,
        "CITY": "David Canabarro",
        "AREA": 174.939,
        "ESTIMATED_POP": 4744,
        "IDHM": 0.762,
        "IDHM_Renda": 0.74,
        "geometry": "POINT (-51.8522 -28.3846)"
      },
      "geometry": {
        "type": "Point",
        "coordinates": [
          -51.8522,
          -28.3846
        ]
      }
    },
    {
      "type": "Feature",
      "properties": {
        "": 126,
        "CITY": "Derrubadas",
        "AREA": 360.851,
        "ESTIMATED_POP": 2852,
        "IDHM": 0.707,
        "IDHM_Renda": 0.664,
        "geometry": "POINT (-53.8651 -27.2654)"
      },
      "geometry": {
        "type": "Point",
        "coordinates": [
          -53.8651,
          -27.2654
        ]
      }
    },
    {
      "type": "Feature",
      "properties": {
        "": 127,
        "CITY": "Dezesseis De Novembro",
        "AREA": 217.8,
        "ESTIMATED_POP": 2478,
        "IDHM": 0.654,
        "IDHM_Renda": 0.625,
        "geometry": "POINT (-55.0482 -28.2269)"
      },
      "geometry": {
        "type": "Point",
        "coordinates": [
          -55.0482,
          -28.2269
        ]
      }
    },
    {
      "type": "Feature",
      "properties": {
        "": 128,
        "CITY": "Dilermando De Aguiar",
        "AREA": 601.17,
        "ESTIMATED_POP": 3026,
        "IDHM": 0.648,
        "IDHM_Renda": 0.681,
        "geometry": "POINT (-54.2136 -29.702)"
      },
      "geometry": {
        "type": "Point",
        "coordinates": [
          -54.2136,
          -29.702
        ]
      }
    },
    {
      "type": "Feature",
      "properties": {
        "": 129,
        "CITY": "Dois Irmãos",
        "AREA": 65.152,
        "ESTIMATED_POP": 32205,
        "IDHM": 0.743,
        "IDHM_Renda": 0.763,
        "geometry": "POINT (-51.0876 -29.5842)"
      },
      "geometry": {
        "type": "Point",
        "coordinates": [
          -51.0876,
          -29.5842
        ]
      }
    },
    {
      "type": "Feature",
      "properties": {
        "": 130,
        "CITY": "Dois Irmãos Das Missões",
        "AREA": 225.681,
        "ESTIMATED_POP": 2044,
        "IDHM": 0.67,
        "IDHM_Renda": 0.646,
        "geometry": "POINT (-53.5309 -27.6575)"
      },
      "geometry": {
        "type": "Point",
        "coordinates": [
          -53.5309,
          -27.6575
        ]
      }
    },
    {
      "type": "Feature",
      "properties": {
        "": 131,
        "CITY": "Dois Lajeados",
        "AREA": 133.535,
        "ESTIMATED_POP": 3394,
        "IDHM": 0.757,
        "IDHM_Renda": 0.775,
        "geometry": "POINT (-51.8351 -28.9752)"
      },
      "geometry": {
        "type": "Point",
        "coordinates": [
          -51.8351,
          -28.9752
        ]
      }
    },
    {
      "type": "Feature",
      "properties": {
        "": 132,
        "CITY": "Dom Feliciano",
        "AREA": 1355.195,
        "ESTIMATED_POP": 15338,
        "IDHM": 0.587,
        "IDHM_Renda": 0.633,
        "geometry": "POINT (-52.1039 -30.7086)"
      },
      "geometry": {
        "type": "Point",
        "coordinates": [
          -52.1039,
          -30.7086
        ]
      }
    },
    {
      "type": "Feature",
      "properties": {
        "": 133,
        "CITY": "Dom Pedrito",
        "AREA": 5191.915,
        "ESTIMATED_POP": 38589,
        "IDHM": 0.708,
        "IDHM_Renda": 0.715,
        "geometry": "POINT (-54.6741 -30.9813)"
      },
      "geometry": {
        "type": "Point",
        "coordinates": [
          -54.6741,
          -30.9813
        ]
      }
    },
    {
      "type": "Feature",
      "properties": {
        "": 134,
        "CITY": "Dom Pedro De Alcântara",
        "AREA": 78.219,
        "ESTIMATED_POP": 2541,
        "IDHM": 0.691,
        "IDHM_Renda": 0.697,
        "geometry": "POINT (-49.8495 -29.3702)"
      },
      "geometry": {
        "type": "Point",
        "coordinates": [
          -49.8495,
          -29.3702
        ]
      }
    },
    {
      "type": "Feature",
      "properties": {
        "": 135,
        "CITY": "Dona Francisca",
        "AREA": 114.149,
        "ESTIMATED_POP": 3086,
        "IDHM": 0.697,
        "IDHM_Renda": 0.718,
        "geometry": "POINT (-53.3623 -29.6249)"
      },
      "geometry": {
        "type": "Point",
        "coordinates": [
          -53.3623,
          -29.6249
        ]
      }
    },
    {
      "type": "Feature",
      "properties": {
        "": 136,
        "CITY": "Doutor Maurício Cardoso",
        "AREA": 255.733,
        "ESTIMATED_POP": 4639,
        "IDHM": 0.706,
        "IDHM_Renda": 0.707,
        "geometry": "POINT (-54.3583 -27.5092)"
      },
      "geometry": {
        "type": "Point",
        "coordinates": [
          -54.3583,
          -27.5092
        ]
      }
    },
    {
      "type": "Feature",
      "properties": {
        "": 137,
        "CITY": "Doutor Ricardo",
        "AREA": 108.728,
        "ESTIMATED_POP": 1994,
        "IDHM": 0.724,
        "IDHM_Renda": 0.749,
        "geometry": "POINT (-51.9849 -29.099)"
      },
      "geometry": {
        "type": "Point",
        "coordinates": [
          -51.9849,
          -29.099
        ]
      }
    },
    {
      "type": "Feature",
      "properties": {
        "": 138,
        "CITY": "Eldorado Do Sul",
        "AREA": 508.803,
        "ESTIMATED_POP": 40643,
        "IDHM": 0.717,
        "IDHM_Renda": 0.717,
        "geometry": "POINT (-51.3104 -29.9993)"
      },
      "geometry": {
        "type": "Point",
        "coordinates": [
          -51.3104,
          -29.9993
        ]
      }
    },
    {
      "type": "Feature",
      "properties": {
        "": 139,
        "CITY": "Encantado",
        "AREA": 139.16,
        "ESTIMATED_POP": 22520,
        "IDHM": 0.767,
        "IDHM_Renda": 0.764,
        "geometry": "POINT (-51.873 -29.2399)"
      },
      "geometry": {
        "type": "Point",
        "coordinates": [
          -51.873,
          -29.2399
        ]
      }
    },
    {
      "type": "Feature",
      "properties": {
        "": 140,
        "CITY": "Encruzilhada Do Sul",
        "AREA": 3348.447,
        "ESTIMATED_POP": 25791,
        "IDHM": 0.657,
        "IDHM_Renda": 0.677,
        "geometry": "POINT (-52.522 -30.5437)"
      },
      "geometry": {
        "type": "Point",
        "coordinates": [
          -52.522,
          -30.5437
        ]
      }
    },
    {
      "type": "Feature",
      "properties": {
        "": 141,
        "CITY": "Engenho Velho",
        "AREA": 71.191,
        "ESTIMATED_POP": 1088,
        "IDHM": 0.717,
        "IDHM_Renda": 0.735,
        "geometry": "POINT (-52.9119 -27.7086)"
      },
      "geometry": {
        "type": "Point",
        "coordinates": [
          -52.9119,
          -27.7086
        ]
      }
    },
    {
      "type": "Feature",
      "properties": {
        "": 142,
        "CITY": "Entre Rios Do Sul",
        "AREA": 119.912,
        "ESTIMATED_POP": 2829,
        "IDHM": 0.703,
        "IDHM_Renda": 0.709,
        "geometry": "POINT (-52.7351 -27.5289)"
      },
      "geometry": {
        "type": "Point",
        "coordinates": [
          -52.7351,
          -27.5289
        ]
      }
    },
    {
      "type": "Feature",
      "properties": {
        "": 143,
        "CITY": "Entre-Ijuís",
        "AREA": 552.657,
        "ESTIMATED_POP": 8542,
        "IDHM": 0.68,
        "IDHM_Renda": 0.692,
        "geometry": "POINT (-54.2714 -28.3628)"
      },
      "geometry": {
        "type": "Point",
        "coordinates": [
          -54.2714,
          -28.3628
        ]
      }
    },
    {
      "type": "Feature",
      "properties": {
        "": 144,
        "CITY": "Erebango",
        "AREA": 153.122,
        "ESTIMATED_POP": 2995,
        "IDHM": 0.712,
        "IDHM_Renda": 0.689,
        "geometry": "POINT (-52.2997 -27.8492)"
      },
      "geometry": {
        "type": "Point",
        "coordinates": [
          -52.2997,
          -27.8492
        ]
      }
    },
    {
      "type": "Feature",
      "properties": {
        "": 145,
        "CITY": "Erechim",
        "AREA": 429.295,
        "ESTIMATED_POP": 105059,
        "IDHM": 0.776,
        "IDHM_Renda": 0.782,
        "geometry": "POINT (-52.2759 -27.6334)"
      },
      "geometry": {
        "type": "Point",
        "coordinates": [
          -52.2759,
          -27.6334
        ]
      }
    },
    {
      "type": "Feature",
      "properties": {
        "": 146,
        "CITY": "Ernestina",
        "AREA": 238.558,
        "ESTIMATED_POP": 3167,
        "IDHM": 0.716,
        "IDHM_Renda": 0.703,
        "geometry": "POINT (-52.5722 -28.4972)"
      },
      "geometry": {
        "type": "Point",
        "coordinates": [
          -52.5722,
          -28.4972
        ]
      }
    },
    {
      "type": "Feature",
      "properties": {
        "": 147,
        "CITY": "Erval Grande",
        "AREA": 285.677,
        "ESTIMATED_POP": 4902,
        "IDHM": 0.681,
        "IDHM_Renda": 0.713,
        "geometry": "POINT (-52.5701 -27.3933)"
      },
      "geometry": {
        "type": "Point",
        "coordinates": [
          -52.5701,
          -27.3933
        ]
      }
    },
    {
      "type": "Feature",
      "properties": {
        "": 148,
        "CITY": "Erval Seco",
        "AREA": 363.906,
        "ESTIMATED_POP": 7040,
        "IDHM": 0.685,
        "IDHM_Renda": 0.666,
        "geometry": "POINT (-53.5096 -27.5494)"
      },
      "geometry": {
        "type": "Point",
        "coordinates": [
          -53.5096,
          -27.5494
        ]
      }
    },
    {
      "type": "Feature",
      "properties": {
        "": 149,
        "CITY": "Esmeralda",
        "AREA": 829.766,
        "ESTIMATED_POP": 3277,
        "IDHM": 0.68,
        "IDHM_Renda": 0.669,
        "geometry": "POINT (-51.1888 -28.0573)"
      },
      "geometry": {
        "type": "Point",
        "coordinates": [
          -51.1888,
          -28.0573
        ]
      }
    },
    {
      "type": "Feature",
      "properties": {
        "": 150,
        "CITY": "Esperança Do Sul",
        "AREA": 148.909,
        "ESTIMATED_POP": 2969,
        "IDHM": 0.661,
        "IDHM_Renda": 0.665,
        "geometry": "POINT (-53.9928 -27.3599)"
      },
      "geometry": {
        "type": "Point",
        "coordinates": [
          -53.9928,
          -27.3599
        ]
      }
    },
    {
      "type": "Feature",
      "properties": {
        "": 151,
        "CITY": "Espumoso",
        "AREA": 783.642,
        "ESTIMATED_POP": 15584,
        "IDHM": 0.765,
        "IDHM_Renda": 0.747,
        "geometry": "POINT (-52.8419 -28.7314)"
      },
      "geometry": {
        "type": "Point",
        "coordinates": [
          -52.8419,
          -28.7314
        ]
      }
    },
    {
      "type": "Feature",
      "properties": {
        "": 152,
        "CITY": "Estação",
        "AREA": 100.266,
        "ESTIMATED_POP": 5976,
        "IDHM": 0.753,
        "IDHM_Renda": 0.752,
        "geometry": "POINT (-52.2705 -27.909)"
      },
      "geometry": {
        "type": "Point",
        "coordinates": [
          -52.2705,
          -27.909
        ]
      }
    },
    {
      "type": "Feature",
      "properties": {
        "": 153,
        "CITY": "Esteio",
        "AREA": 27.676,
        "ESTIMATED_POP": 83121,
        "IDHM": 0.754,
        "IDHM_Renda": 0.769,
        "geometry": "POINT (-51.1438 -29.8522)"
      },
      "geometry": {
        "type": "Point",
        "coordinates": [
          -51.1438,
          -29.8522
        ]
      }
    },
    {
      "type": "Feature",
      "properties": {
        "": 154,
        "CITY": "Estrela",
        "AREA": 183.963,
        "ESTIMATED_POP": 33820,
        "IDHM": 0.767,
        "IDHM_Renda": 0.776,
        "geometry": "POINT (-51.9703 -29.5035)"
      },
      "geometry": {
        "type": "Point",
        "coordinates": [
          -51.9703,
          -29.5035
        ]
      }
    },
    {
      "type": "Feature",
      "properties": {
        "": 155,
        "CITY": "Estrela Velha",
        "AREA": 281.613,
        "ESTIMATED_POP": 3660,
        "IDHM": 0.679,
        "IDHM_Renda": 0.707,
        "geometry": "POINT (-53.1603 -29.1797)"
      },
      "geometry": {
        "type": "Point",
        "coordinates": [
          -53.1603,
          -29.1797
        ]
      }
    },
    {
      "type": "Feature",
      "properties": {
        "": 156,
        "CITY": "Estância Velha",
        "AREA": 52.125,
        "ESTIMATED_POP": 49345,
        "IDHM": 0.757,
        "IDHM_Renda": 0.749,
        "geometry": "POINT (-51.1743 -29.6501)"
      },
      "geometry": {
        "type": "Point",
        "coordinates": [
          -51.1743,
          -29.6501
        ]
      }
    },
    {
      "type": "Feature",
      "properties": {
        "": 157,
        "CITY": "Eugênio De Castro",
        "AREA": 417.26,
        "ESTIMATED_POP": 2458,
        "IDHM": 0.712,
        "IDHM_Renda": 0.697,
        "geometry": "POINT (-54.1481 -28.5251)"
      },
      "geometry": {
        "type": "Point",
        "coordinates": [
          -54.1481,
          -28.5251
        ]
      }
    },
    {
      "type": "Feature",
      "properties": {
        "": 158,
        "CITY": "Fagundes Varela",
        "AREA": 134.295,
        "ESTIMATED_POP": 2721,
        "IDHM": 0.763,
        "IDHM_Renda": 0.773,
        "geometry": "POINT (-51.6914 -28.8821)"
      },
      "geometry": {
        "type": "Point",
        "coordinates": [
          -51.6914,
          -28.8821
        ]
      }
    },
    {
      "type": "Feature",
      "properties": {
        "": 159,
        "CITY": "Farroupilha",
        "AREA": 361.729,
        "ESTIMATED_POP": 71570,
        "IDHM": 0.777,
        "IDHM_Renda": 0.783,
        "geometry": "POINT (-51.3483 -29.2237)"
      },
      "geometry": {
        "type": "Point",
        "coordinates": [
          -51.3483,
          -29.2237
        ]
      }
    },
    {
      "type": "Feature",
      "properties": {
        "": 160,
        "CITY": "Faxinal Do Soturno",
        "AREA": 169.514,
        "ESTIMATED_POP": 6690,
        "IDHM": 0.72,
        "IDHM_Renda": 0.732,
        "geometry": "POINT (-53.4391 -29.5743)"
      },
      "geometry": {
        "type": "Point",
        "coordinates": [
          -53.4391,
          -29.5743
        ]
      }
    },
    {
      "type": "Feature",
      "properties": {
        "": 161,
        "CITY": "Faxinalzinho",
        "AREA": 143.321,
        "ESTIMATED_POP": 2346,
        "IDHM": 0.666,
        "IDHM_Renda": 0.646,
        "geometry": "POINT (-52.6706 -27.4254)"
      },
      "geometry": {
        "type": "Point",
        "coordinates": [
          -52.6706,
          -27.4254
        ]
      }
    },
    {
      "type": "Feature",
      "properties": {
        "": 162,
        "CITY": "Fazenda Vilanova",
        "AREA": 84.794,
        "ESTIMATED_POP": 4455,
        "IDHM": 0.698,
        "IDHM_Renda": 0.726,
        "geometry": "POINT (-51.8212 -29.5886)"
      },
      "geometry": {
        "type": "Point",
        "coordinates": [
          -51.8212,
          -29.5886
        ]
      }
    },
    {
      "type": "Feature",
      "properties": {
        "": 163,
        "CITY": "Feliz",
        "AREA": 94.943,
        "ESTIMATED_POP": 13451,
        "IDHM": 0.75,
        "IDHM_Renda": 0.758,
        "geometry": "POINT (-51.3101 -29.454)"
      },
      "geometry": {
        "type": "Point",
        "coordinates": [
          -51.3101,
          -29.454
        ]
      }
    },
    {
      "type": "Feature",
      "properties": {
        "": 164,
        "CITY": "Flores Da Cunha",
        "AREA": 273.637,
        "ESTIMATED_POP": 30430,
        "IDHM": 0.754,
        "IDHM_Renda": 0.786,
        "geometry": "POINT (-51.1822 -29.0311)"
      },
      "geometry": {
        "type": "Point",
        "coordinates": [
          -51.1822,
          -29.0311
        ]
      }
    },
    {
      "type": "Feature",
      "properties": {
        "": 165,
        "CITY": "Floriano Peixoto",
        "AREA": 168.542,
        "ESTIMATED_POP": 1796,
        "IDHM": 0.663,
        "IDHM_Renda": 0.701,
        "geometry": "POINT (-52.0856 -27.8625)"
      },
      "geometry": {
        "type": "Point",
        "coordinates": [
          -52.0856,
          -27.8625
        ]
      }
    },
    {
      "type": "Feature",
      "properties": {
        "": 166,
        "CITY": "Fontoura Xavier",
        "AREA": 583.465,
        "ESTIMATED_POP": 10370,
        "IDHM": 0.661,
        "IDHM_Renda": 0.668,
        "geometry": "POINT (-52.345 -28.9822)"
      },
      "geometry": {
        "type": "Point",
        "coordinates": [
          -52.345,
          -28.9822
        ]
      }
    },
    {
      "type": "Feature",
      "properties": {
        "": 167,
        "CITY": "Formigueiro",
        "AREA": 581.619,
        "ESTIMATED_POP": 6715,
        "IDHM": 0.682,
        "IDHM_Renda": 0.69,
        "geometry": "POINT (-53.5003 -29.9976)"
      },
      "geometry": {
        "type": "Point",
        "coordinates": [
          -53.5003,
          -29.9976
        ]
      }
    },
    {
      "type": "Feature",
      "properties": {
        "": 168,
        "CITY": "Forquetinha",
        "AREA": 93.48,
        "ESTIMATED_POP": 2424,
        "IDHM": 0.683,
        "IDHM_Renda": 0.743,
        "geometry": "POINT (-52.0969 -29.3806)"
      },
      "geometry": {
        "type": "Point",
        "coordinates": [
          -52.0969,
          -29.3806
        ]
      }
    },
    {
      "type": "Feature",
      "properties": {
        "": 169,
        "CITY": "Fortaleza Dos Valos",
        "AREA": 649.787,
        "ESTIMATED_POP": 4356,
        "IDHM": 0.756,
        "IDHM_Renda": 0.779,
        "geometry": "POINT (-53.2355 -28.7879)"
      },
      "geometry": {
        "type": "Point",
        "coordinates": [
          -53.2355,
          -28.7879
        ]
      }
    },
    {
      "type": "Feature",
      "properties": {
        "": 170,
        "CITY": "Frederico Westphalen",
        "AREA": 265.181,
        "ESTIMATED_POP": 31120,
        "IDHM": 0.76,
        "IDHM_Renda": 0.754,
        "geometry": "POINT (-53.4008 -27.3589)"
      },
      "geometry": {
        "type": "Point",
        "coordinates": [
          -53.4008,
          -27.3589
        ]
      }
    },
    {
      "type": "Feature",
      "properties": {
        "": 171,
        "CITY": "Garibaldi",
        "AREA": 168.137,
        "ESTIMATED_POP": 34684,
        "IDHM": 0.786,
        "IDHM_Renda": 0.825,
        "geometry": "POINT (-51.5295 -29.2545)"
      },
      "geometry": {
        "type": "Point",
        "coordinates": [
          -51.5295,
          -29.2545
        ]
      }
    },
    {
      "type": "Feature",
      "properties": {
        "": 172,
        "CITY": "Garruchos",
        "AREA": 803.737,
        "ESTIMATED_POP": 2963,
        "IDHM": 0.671,
        "IDHM_Renda": 0.657,
        "geometry": "POINT (-55.6341 -28.1895)"
      },
      "geometry": {
        "type": "Point",
        "coordinates": [
          -55.6341,
          -28.1895
        ]
      }
    },
    {
      "type": "Feature",
      "properties": {
        "": 173,
        "CITY": "Gaurama",
        "AREA": 204.428,
        "ESTIMATED_POP": 5580,
        "IDHM": 0.738,
        "IDHM_Renda": 0.733,
        "geometry": "POINT (-52.1001 -27.5839)"
      },
      "geometry": {
        "type": "Point",
        "coordinates": [
          -52.1001,
          -27.5839
        ]
      }
    },
    {
      "type": "Feature",
      "properties": {
        "": 174,
        "CITY": "General Câmara",
        "AREA": 510.01,
        "ESTIMATED_POP": 8409,
        "IDHM": 0.686,
        "IDHM_Renda": 0.704,
        "geometry": "POINT (-51.7634 -29.903)"
      },
      "geometry": {
        "type": "Point",
        "coordinates": [
          -51.7634,
          -29.903
        ]
      }
    },
    {
      "type": "Feature",
      "properties": {
        "": 175,
        "CITY": "Gentil",
        "AREA": 184.715,
        "ESTIMATED_POP": 1642,
        "IDHM": 0.733,
        "IDHM_Renda": 0.71,
        "geometry": "POINT (-52.0345 -28.4338)"
      },
      "geometry": {
        "type": "Point",
        "coordinates": [
          -52.0345,
          -28.4338
        ]
      }
    },
    {
      "type": "Feature",
      "properties": {
        "": 176,
        "CITY": "Getúlio Vargas",
        "AREA": 287.117,
        "ESTIMATED_POP": 16240,
        "IDHM": 0.746,
        "IDHM_Renda": 0.747,
        "geometry": "POINT (-52.2496 -27.8759)"
      },
      "geometry": {
        "type": "Point",
        "coordinates": [
          -52.2496,
          -27.8759
        ]
      }
    },
    {
      "type": "Feature",
      "properties": {
        "": 177,
        "CITY": "Giruá",
        "AREA": 856.541,
        "ESTIMATED_POP": 16151,
        "IDHM": 0.721,
        "IDHM_Renda": 0.707,
        "geometry": "POINT (-54.3508 -28.0297)"
      },
      "geometry": {
        "type": "Point",
        "coordinates": [
          -54.3508,
          -28.0297
        ]
      }
    },
    {
      "type": "Feature",
      "properties": {
        "": 178,
        "CITY": "Glorinha",
        "AREA": 323.641,
        "ESTIMATED_POP": 7988,
        "IDHM": 0.714,
        "IDHM_Renda": 0.716,
        "geometry": "POINT (-50.7862 -29.8771)"
      },
      "geometry": {
        "type": "Point",
        "coordinates": [
          -50.7862,
          -29.8771
        ]
      }
    },
    {
      "type": "Feature",
      "properties": {
        "": 179,
        "CITY": "Gramado",
        "AREA": 237.588,
        "ESTIMATED_POP": 35875,
        "IDHM": 0.764,
        "IDHM_Renda": 0.783,
        "geometry": "POINT (-50.8719 -29.3797)"
      },
      "geometry": {
        "type": "Point",
        "coordinates": [
          -50.8719,
          -29.3797
        ]
      }
    },
    {
      "type": "Feature",
      "properties": {
        "": 180,
        "CITY": "Gramado Dos Loureiros",
        "AREA": 131.396,
        "ESTIMATED_POP": 2106,
        "IDHM": 0.685,
        "IDHM_Renda": 0.662,
        "geometry": "POINT (-52.9182 -27.4444)"
      },
      "geometry": {
        "type": "Point",
        "coordinates": [
          -52.9182,
          -27.4444
        ]
      }
    },
    {
      "type": "Feature",
      "properties": {
        "": 181,
        "CITY": "Gramado Xavier",
        "AREA": 217.525,
        "ESTIMATED_POP": 4297,
        "IDHM": 0.634,
        "IDHM_Renda": 0.681,
        "geometry": "POINT (-52.5778 -29.2699)"
      },
      "geometry": {
        "type": "Point",
        "coordinates": [
          -52.5778,
          -29.2699
        ]
      }
    },
    {
      "type": "Feature",
      "properties": {
        "": 182,
        "CITY": "Gravataí",
        "AREA": 463.166,
        "ESTIMATED_POP": 279398,
        "IDHM": 0.736,
        "IDHM_Renda": 0.727,
        "geometry": "POINT (-50.9908 -29.9455)"
      },
      "geometry": {
        "type": "Point",
        "coordinates": [
          -50.9908,
          -29.9455
        ]
      }
    },
    {
      "type": "Feature",
      "properties": {
        "": 183,
        "CITY": "Guabiju",
        "AREA": 146.528,
        "ESTIMATED_POP": 1516,
        "IDHM": 0.758,
        "IDHM_Renda": 0.831,
        "geometry": "POINT (-51.691 -28.5407)"
      },
      "geometry": {
        "type": "Point",
        "coordinates": [
          -51.691,
          -28.5407
        ]
      }
    },
    {
      "type": "Feature",
      "properties": {
        "": 184,
        "CITY": "Guaporé",
        "AREA": 297.545,
        "ESTIMATED_POP": 25475,
        "IDHM": 0.765,
        "IDHM_Renda": 0.781,
        "geometry": "POINT (-51.8907 -28.8491)"
      },
      "geometry": {
        "type": "Point",
        "coordinates": [
          -51.8907,
          -28.8491
        ]
      }
    },
    {
      "type": "Feature",
      "properties": {
        "": 185,
        "CITY": "Guarani Das Missões",
        "AREA": 290.783,
        "ESTIMATED_POP": 7614,
        "IDHM": 0.737,
        "IDHM_Renda": 0.698,
        "geometry": "POINT (-54.5606 -28.1418)"
      },
      "geometry": {
        "type": "Point",
        "coordinates": [
          -54.5606,
          -28.1418
        ]
      }
    },
    {
      "type": "Feature",
      "properties": {
        "": 186,
        "CITY": "Guaíba",
        "AREA": 376.166,
        "ESTIMATED_POP": 98043,
        "IDHM": 0.73,
        "IDHM_Renda": 0.732,
        "geometry": "POINT (-51.3147 -30.1086)"
      },
      "geometry": {
        "type": "Point",
        "coordinates": [
          -51.3147,
          -30.1086
        ]
      }
    },
    {
      "type": "Feature",
      "properties": {
        "": 187,
        "CITY": "Harmonia",
        "AREA": 48.551,
        "ESTIMATED_POP": 4812,
        "IDHM": 0.749,
        "IDHM_Renda": 0.748,
        "geometry": "POINT (-51.414 -29.549)"
      },
      "geometry": {
        "type": "Point",
        "coordinates": [
          -51.414,
          -29.549
        ]
      }
    },
    {
      "type": "Feature",
      "properties": {
        "": 188,
        "CITY": "Herval",
        "AREA": 1759.717,
        "ESTIMATED_POP": 6828,
        "IDHM": 0.687,
        "IDHM_Renda": 0.73,
        "geometry": "POINT (-53.3943 -32.0267)"
      },
      "geometry": {
        "type": "Point",
        "coordinates": [
          -53.3943,
          -32.0267
        ]
      }
    },
    {
      "type": "Feature",
      "properties": {
        "": 189,
        "CITY": "Herveiras",
        "AREA": 118.252,
        "ESTIMATED_POP": 3018,
        "IDHM": 0.616,
        "IDHM_Renda": 0.67,
        "geometry": "POINT (-52.6502 -29.457)"
      },
      "geometry": {
        "type": "Point",
        "coordinates": [
          -52.6502,
          -29.457
        ]
      }
    },
    {
      "type": "Feature",
      "properties": {
        "": 190,
        "CITY": "Horizontina",
        "AREA": 229.736,
        "ESTIMATED_POP": 19267,
        "IDHM": 0.783,
        "IDHM_Renda": 0.782,
        "geometry": "POINT (-54.3088 -27.6301)"
      },
      "geometry": {
        "type": "Point",
        "coordinates": [
          -54.3088,
          -27.6301
        ]
      }
    },
    {
      "type": "Feature",
      "properties": {
        "": 191,
        "CITY": "Hulha Negra",
        "AREA": 822.608,
        "ESTIMATED_POP": 6714,
        "IDHM": 0.643,
        "IDHM_Renda": 0.653,
        "geometry": "POINT (-53.8678 -31.4051)"
      },
      "geometry": {
        "type": "Point",
        "coordinates": [
          -53.8678,
          -31.4051
        ]
      }
    },
    {
      "type": "Feature",
      "properties": {
        "": 192,
        "CITY": "Humaitá",
        "AREA": 134.463,
        "ESTIMATED_POP": 4788,
        "IDHM": 0.738,
        "IDHM_Renda": 0.732,
        "geometry": "POINT (-53.9765 -27.5615)"
      },
      "geometry": {
        "type": "Point",
        "coordinates": [
          -53.9765,
          -27.5615
        ]
      }
    },
    {
      "type": "Feature",
      "properties": {
        "": 193,
        "CITY": "Ibarama",
        "AREA": 195.426,
        "ESTIMATED_POP": 4412,
        "IDHM": 0.652,
        "IDHM_Renda": 0.686,
        "geometry": "POINT (-53.1332 -29.4207)"
      },
      "geometry": {
        "type": "Point",
        "coordinates": [
          -53.1332,
          -29.4207
        ]
      }
    },
    {
      "type": "Feature",
      "properties": {
        "": 194,
        "CITY": "Ibiaçá",
        "AREA": 348.778,
        "ESTIMATED_POP": 4719,
        "IDHM": 0.739,
        "IDHM_Renda": 0.766,
        "geometry": "POINT (-51.8573 -28.0488)"
      },
      "geometry": {
        "type": "Point",
        "coordinates": [
          -51.8573,
          -28.0488
        ]
      }
    },
    {
      "type": "Feature",
      "properties": {
        "": 195,
        "CITY": "Ibiraiaras",
        "AREA": 300.65,
        "ESTIMATED_POP": 7338,
        "IDHM": 0.724,
        "IDHM_Renda": 0.739,
        "geometry": "POINT (-51.6353 -28.3692)"
      },
      "geometry": {
        "type": "Point",
        "coordinates": [
          -51.6353,
          -28.3692
        ]
      }
    },
    {
      "type": "Feature",
      "properties": {
        "": 196,
        "CITY": "Ibirapuitã",
        "AREA": 307.164,
        "ESTIMATED_POP": 4027,
        "IDHM": 0.638,
        "IDHM_Renda": 0.678,
        "geometry": "POINT (-52.5194 -28.615)"
      },
      "geometry": {
        "type": "Point",
        "coordinates": [
          -52.5194,
          -28.615
        ]
      }
    },
    {
      "type": "Feature",
      "properties": {
        "": 197,
        "CITY": "Ibirubá",
        "AREA": 607.39,
        "ESTIMATED_POP": 20284,
        "IDHM": 0.765,
        "IDHM_Renda": 0.786,
        "geometry": "POINT (-53.0884 -28.6276)"
      },
      "geometry": {
        "type": "Point",
        "coordinates": [
          -53.0884,
          -28.6276
        ]
      }
    },
    {
      "type": "Feature",
      "properties": {
        "": 198,
        "CITY": "Igrejinha",
        "AREA": 136.784,
        "ESTIMATED_POP": 36450,
        "IDHM": 0.721,
        "IDHM_Renda": 0.749,
        "geometry": "POINT (-50.7987 -29.5722)"
      },
      "geometry": {
        "type": "Point",
        "coordinates": [
          -50.7987,
          -29.5722
        ]
      }
    },
    {
      "type": "Feature",
      "properties": {
        "": 199,
        "CITY": "Ijuí",
        "AREA": 689.094,
        "ESTIMATED_POP": 83173,
        "IDHM": 0.781,
        "IDHM_Renda": 0.786,
        "geometry": "POINT (-53.9181 -28.3885)"
      },
      "geometry": {
        "type": "Point",
        "coordinates": [
          -53.9181,
          -28.3885
        ]
      }
    },
    {
      "type": "Feature",
      "properties": {
        "": 200,
        "CITY": "Ilópolis",
        "AREA": 118.144,
        "ESTIMATED_POP": 4091,
        "IDHM": 0.73,
        "IDHM_Renda": 0.756,
        "geometry": "POINT (-52.1222 -28.9292)"
      },
      "geometry": {
        "type": "Point",
        "coordinates": [
          -52.1222,
          -28.9292
        ]
      }
    },
    {
      "type": "Feature",
      "properties": {
        "": 201,
        "CITY": "Imbé",
        "AREA": 39.766,
        "ESTIMATED_POP": 22309,
        "IDHM": 0.764,
        "IDHM_Renda": 0.825,
        "geometry": "POINT (-50.1306 -29.9748)"
      },
      "geometry": {
        "type": "Point",
        "coordinates": [
          -50.1306,
          -29.9748
        ]
      }
    },
    {
      "type": "Feature",
      "properties": {
        "": 202,
        "CITY": "Imigrante",
        "AREA": 73.689,
        "ESTIMATED_POP": 3116,
        "IDHM": 0.743,
        "IDHM_Renda": 0.764,
        "geometry": "POINT (-51.7702 -29.3522)"
      },
      "geometry": {
        "type": "Point",
        "coordinates": [
          -51.7702,
          -29.3522
        ]
      }
    },
    {
      "type": "Feature",
      "properties": {
        "": 203,
        "CITY": "Independência",
        "AREA": 358.283,
        "ESTIMATED_POP": 6228,
        "IDHM": 0.693,
        "IDHM_Renda": 0.711,
        "geometry": "POINT (-54.1881 -27.8473)"
      },
      "geometry": {
        "type": "Point",
        "coordinates": [
          -54.1881,
          -27.8473
        ]
      }
    },
    {
      "type": "Feature",
      "properties": {
        "": 204,
        "CITY": "Inhacorá",
        "AREA": 113.749,
        "ESTIMATED_POP": 2235,
        "IDHM": 0.673,
        "IDHM_Renda": 0.647,
        "geometry": "POINT (-54.0125 -27.8805)"
      },
      "geometry": {
        "type": "Point",
        "coordinates": [
          -54.0125,
          -27.8805
        ]
      }
    },
    {
      "type": "Feature",
      "properties": {
        "": 205,
        "CITY": "Ipiranga Do Sul",
        "AREA": 157.882,
        "ESTIMATED_POP": 1899,
        "IDHM": 0.791,
        "IDHM_Renda": 0.818,
        "geometry": "POINT (-52.4251 -27.936)"
      },
      "geometry": {
        "type": "Point",
        "coordinates": [
          -52.4251,
          -27.936
        ]
      }
    },
    {
      "type": "Feature",
      "properties": {
        "": 206,
        "CITY": "Ipê",
        "AREA": 599.245,
        "ESTIMATED_POP": 6588,
        "IDHM": 0.728,
        "IDHM_Renda": 0.751,
        "geometry": "POINT (-51.2799 -28.8183)"
      },
      "geometry": {
        "type": "Point",
        "coordinates": [
          -51.2799,
          -28.8183
        ]
      }
    },
    {
      "type": "Feature",
      "properties": {
        "": 207,
        "CITY": "Iraí",
        "AREA": 181.579,
        "ESTIMATED_POP": 7344,
        "IDHM": 0.691,
        "IDHM_Renda": 0.684,
        "geometry": "POINT (-53.2643 -27.1923)"
      },
      "geometry": {
        "type": "Point",
        "coordinates": [
          -53.2643,
          -27.1923
        ]
      }
    },
    {
      "type": "Feature",
      "properties": {
        "": 208,
        "CITY": "Itaara",
        "AREA": 172.801,
        "ESTIMATED_POP": 5459,
        "IDHM": 0.76,
        "IDHM_Renda": 0.761,
        "geometry": "POINT (-53.7578 -29.6029)"
      },
      "geometry": {
        "type": "Point",
        "coordinates": [
          -53.7578,
          -29.6029
        ]
      }
    },
    {
      "type": "Feature",
      "properties": {
        "": 209,
        "CITY": "Itacurubi",
        "AREA": 1120.874,
        "ESTIMATED_POP": 3470,
        "IDHM": 0.657,
        "IDHM_Renda": 0.692,
        "geometry": "POINT (-55.2327 -28.8022)"
      },
      "geometry": {
        "type": "Point",
        "coordinates": [
          -55.2327,
          -28.8022
        ]
      }
    },
    {
      "type": "Feature",
      "properties": {
        "": 210,
        "CITY": "Itapuca",
        "AREA": 184.673,
        "ESTIMATED_POP": 2125,
        "IDHM": 0.664,
        "IDHM_Renda": 0.709,
        "geometry": "POINT (-52.1724 -28.7803)"
      },
      "geometry": {
        "type": "Point",
        "coordinates": [
          -52.1724,
          -28.7803
        ]
      }
    },
    {
      "type": "Feature",
      "properties": {
        "": 211,
        "CITY": "Itaqui",
        "AREA": 3406.606,
        "ESTIMATED_POP": 37757,
        "IDHM": 0.713,
        "IDHM_Renda": 0.687,
        "geometry": "POINT (-56.5571 -29.1286)"
      },
      "geometry": {
        "type": "Point",
        "coordinates": [
          -56.5571,
          -29.1286
        ]
      }
    },
    {
      "type": "Feature",
      "properties": {
        "": 212,
        "CITY": "Itati",
        "AREA": 206.91,
        "ESTIMATED_POP": 2441,
        "IDHM": 0.669,
        "IDHM_Renda": 0.692,
        "geometry": "POINT (-50.1018 -29.5002)"
      },
      "geometry": {
        "type": "Point",
        "coordinates": [
          -50.1018,
          -29.5002
        ]
      }
    },
    {
      "type": "Feature",
      "properties": {
        "": 213,
        "CITY": "Itatiba Do Sul",
        "AREA": 212.669,
        "ESTIMATED_POP": 3420,
        "IDHM": 0.681,
        "IDHM_Renda": 0.696,
        "geometry": "POINT (-52.4524 -27.3833)"
      },
      "geometry": {
        "type": "Point",
        "coordinates": [
          -52.4524,
          -27.3833
        ]
      }
    },
    {
      "type": "Feature",
      "properties": {
        "": 214,
        "CITY": "Ivorá",
        "AREA": 122.93,
        "ESTIMATED_POP": 1940,
        "IDHM": 0.724,
        "IDHM_Renda": 0.712,
        "geometry": "POINT (-53.5809 -29.5195)"
      },
      "geometry": {
        "type": "Point",
        "coordinates": [
          -53.5809,
          -29.5195
        ]
      }
    },
    {
      "type": "Feature",
      "properties": {
        "": 215,
        "CITY": "Ivoti",
        "AREA": 63.092,
        "ESTIMATED_POP": 23880,
        "IDHM": 0.784,
        "IDHM_Renda": 0.78,
        "geometry": "POINT (-51.1596 -29.5942)"
      },
      "geometry": {
        "type": "Point",
        "coordinates": [
          -51.1596,
          -29.5942
        ]
      }
    },
    {
      "type": "Feature",
      "properties": {
        "": 216,
        "CITY": "Jaboticaba",
        "AREA": 128.053,
        "ESTIMATED_POP": 3848,
        "IDHM": 0.658,
        "IDHM_Renda": 0.636,
        "geometry": "POINT (-53.2844 -27.6312)"
      },
      "geometry": {
        "type": "Point",
        "coordinates": [
          -53.2844,
          -27.6312
        ]
      }
    },
    {
      "type": "Feature",
      "properties": {
        "": 217,
        "CITY": "Jacuizinho",
        "AREA": 339.399,
        "ESTIMATED_POP": 2679,
        "IDHM": 0.662,
        "IDHM_Renda": 0.73,
        "geometry": "POINT (-53.0566 -29.0338)"
      },
      "geometry": {
        "type": "Point",
        "coordinates": [
          -53.0566,
          -29.0338
        ]
      }
    },
    {
      "type": "Feature",
      "properties": {
        "": 218,
        "CITY": "Jacutinga",
        "AREA": 179.238,
        "ESTIMATED_POP": 3576,
        "IDHM": 0.726,
        "IDHM_Renda": 0.703,
        "geometry": "POINT (-52.5432 -27.7285)"
      },
      "geometry": {
        "type": "Point",
        "coordinates": [
          -52.5432,
          -27.7285
        ]
      }
    },
    {
      "type": "Feature",
      "properties": {
        "": 219,
        "CITY": "Jaguari",
        "AREA": 672.735,
        "ESTIMATED_POP": 10937,
        "IDHM": 0.712,
        "IDHM_Renda": 0.734,
        "geometry": "POINT (-54.6938 -29.4973)"
      },
      "geometry": {
        "type": "Point",
        "coordinates": [
          -54.6938,
          -29.4973
        ]
      }
    },
    {
      "type": "Feature",
      "properties": {
        "": 220,
        "CITY": "Jaguarão",
        "AREA": 2052.41,
        "ESTIMATED_POP": 26869,
        "IDHM": 0.707,
        "IDHM_Renda": 0.698,
        "geometry": "POINT (-53.3775 -32.5636)"
      },
      "geometry": {
        "type": "Point",
        "coordinates": [
          -53.3775,
          -32.5636
        ]
      }
    },
    {
      "type": "Feature",
      "properties": {
        "": 221,
        "CITY": "Jaquirana",
        "AREA": 908.838,
        "ESTIMATED_POP": 3773,
        "IDHM": 0.614,
        "IDHM_Renda": 0.626,
        "geometry": "POINT (-50.358 -28.8806)"
      },
      "geometry": {
        "type": "Point",
        "coordinates": [
          -50.358,
          -28.8806
        ]
      }
    },
    {
      "type": "Feature",
      "properties": {
        "": 222,
        "CITY": "Jari",
        "AREA": 856.475,
        "ESTIMATED_POP": 3518,
        "IDHM": 0.631,
        "IDHM_Renda": 0.636,
        "geometry": "POINT (-54.2199 -29.2901)"
      },
      "geometry": {
        "type": "Point",
        "coordinates": [
          -54.2199,
          -29.2901
        ]
      }
    },
    {
      "type": "Feature",
      "properties": {
        "": 223,
        "CITY": "Jóia",
        "AREA": 1238.935,
        "ESTIMATED_POP": 8554,
        "IDHM": 0.686,
        "IDHM_Renda": 0.671,
        "geometry": "POINT (-54.116 -28.6456)"
      },
      "geometry": {
        "type": "Point",
        "coordinates": [
          -54.116,
          -28.6456
        ]
      }
    },
    {
      "type": "Feature",
      "properties": {
        "": 224,
        "CITY": "Júlio De Castilhos",
        "AREA": 1929.395,
        "ESTIMATED_POP": 19364,
        "IDHM": 0.716,
        "IDHM_Renda": 0.733,
        "geometry": "POINT (-53.6831 -29.2264)"
      },
      "geometry": {
        "type": "Point",
        "coordinates": [
          -53.6831,
          -29.2264
        ]
      }
    },
    {
      "type": "Feature",
      "properties": {
        "": 225,
        "CITY": "Lagoa Bonita Do Sul",
        "AREA": 109.281,
        "ESTIMATED_POP": 2884,
        "IDHM": 0.67,
        "IDHM_Renda": 0.696,
        "geometry": "POINT (-53.017 -29.4941)"
      },
      "geometry": {
        "type": "Point",
        "coordinates": [
          -53.017,
          -29.4941
        ]
      }
    },
    {
      "type": "Feature",
      "properties": {
        "": 227,
        "CITY": "Lagoa Dos Três Cantos",
        "AREA": 138.602,
        "ESTIMATED_POP": 1611,
        "IDHM": 0.789,
        "IDHM_Renda": 0.765,
        "geometry": "POINT (-52.8578 -28.5695)"
      },
      "geometry": {
        "type": "Point",
        "coordinates": [
          -52.8578,
          -28.5695
        ]
      }
    },
    {
      "type": "Feature",
      "properties": {
        "": 229,
        "CITY": "Lagoa Vermelha",
        "AREA": 1262.559,
        "ESTIMATED_POP": 27834,
        "IDHM": 0.738,
        "IDHM_Renda": 0.734,
        "geometry": "POINT (-51.5272 -28.2089)"
      },
      "geometry": {
        "type": "Point",
        "coordinates": [
          -51.5272,
          -28.2089
        ]
      }
    },
    {
      "type": "Feature",
      "properties": {
        "": 230,
        "CITY": "Lagoão",
        "AREA": 386.406,
        "ESTIMATED_POP": 6442,
        "IDHM": 0.643,
        "IDHM_Renda": 0.641,
        "geometry": "POINT (-52.775 -29.2243)"
      },
      "geometry": {
        "type": "Point",
        "coordinates": [
          -52.775,
          -29.2243
        ]
      }
    },
    {
      "type": "Feature",
      "properties": {
        "": 231,
        "CITY": "Lajeado",
        "AREA": 91.591,
        "ESTIMATED_POP": 82951,
        "IDHM": 0.778,
        "IDHM_Renda": 0.796,
        "geometry": "POINT (-51.9678 -29.4655)"
      },
      "geometry": {
        "type": "Point",
        "coordinates": [
          -51.9678,
          -29.4655
        ]
      }
    },
    {
      "type": "Feature",
      "properties": {
        "": 232,
        "CITY": "Lajeado Do Bugre",
        "AREA": 67.933,
        "ESTIMATED_POP": 2561,
        "IDHM": 0.613,
        "IDHM_Renda": 0.604,
        "geometry": "POINT (-53.1814 -27.6908)"
      },
      "geometry": {
        "type": "Point",
        "coordinates": [
          -53.1814,
          -27.6908
        ]
      }
    },
    {
      "type": "Feature",
      "properties": {
        "": 233,
        "CITY": "Lavras Do Sul",
        "AREA": 2600.6,
        "ESTIMATED_POP": 7516,
        "IDHM": 0.699,
        "IDHM_Renda": 0.683,
        "geometry": "POINT (-53.8985 -30.812)"
      },
      "geometry": {
        "type": "Point",
        "coordinates": [
          -53.8985,
          -30.812
        ]
      }
    },
    {
      "type": "Feature",
      "properties": {
        "": 234,
        "CITY": "Liberato Salzano",
        "AREA": 245.627,
        "ESTIMATED_POP": 5289,
        "IDHM": 0.685,
        "IDHM_Renda": 0.68,
        "geometry": "POINT (-53.0749 -27.5965)"
      },
      "geometry": {
        "type": "Point",
        "coordinates": [
          -53.0749,
          -27.5965
        ]
      }
    },
    {
      "type": "Feature",
      "properties": {
        "": 235,
        "CITY": "Lindolfo Collor",
        "AREA": 33.414,
        "ESTIMATED_POP": 5980,
        "IDHM": 0.712,
        "IDHM_Renda": 0.712,
        "geometry": "POINT (-51.2082 -29.6008)"
      },
      "geometry": {
        "type": "Point",
        "coordinates": [
          -51.2082,
          -29.6008
        ]
      }
    },
    {
      "type": "Feature",
      "properties": {
        "": 236,
        "CITY": "Linha Nova",
        "AREA": 63.502,
        "ESTIMATED_POP": 1708,
        "IDHM": 0.749,
        "IDHM_Renda": 0.751,
        "geometry": "POINT (-51.2019 -29.4626)"
      },
      "geometry": {
        "type": "Point",
        "coordinates": [
          -51.2019,
          -29.4626
        ]
      }
    },
    {
      "type": "Feature",
      "properties": {
        "": 237,
        "CITY": "Machadinho",
        "AREA": 335.234,
        "ESTIMATED_POP": 5464,
        "IDHM": 0.692,
        "IDHM_Renda": 0.711,
        "geometry": "POINT (-51.6675 -27.5681)"
      },
      "geometry": {
        "type": "Point",
        "coordinates": [
          -51.6675,
          -27.5681
        ]
      }
    },
    {
      "type": "Feature",
      "properties": {
        "": 238,
        "CITY": "Mampituba",
        "AREA": 157.848,
        "ESTIMATED_POP": 2990,
        "IDHM": 0.649,
        "IDHM_Renda": 0.65,
        "geometry": "POINT (-49.9365 -29.2106)"
      },
      "geometry": {
        "type": "Point",
        "coordinates": [
          -49.9365,
          -29.2106
        ]
      }
    },
    {
      "type": "Feature",
      "properties": {
        "": 239,
        "CITY": "Manoel Viana",
        "AREA": 1390.696,
        "ESTIMATED_POP": 7291,
        "IDHM": 0.655,
        "IDHM_Renda": 0.686,
        "geometry": "POINT (-55.4917 -29.5805)"
      },
      "geometry": {
        "type": "Point",
        "coordinates": [
          -55.4917,
          -29.5805
        ]
      }
    },
    {
      "type": "Feature",
      "properties": {
        "": 240,
        "CITY": "Maquiné",
        "AREA": 621.561,
        "ESTIMATED_POP": 6749,
        "IDHM": 0.682,
        "IDHM_Renda": 0.695,
        "geometry": "POINT (-50.2034 -29.6791)"
      },